,id,name,address,city,state,zip,county,phone,type,ownership,emergency,quality,LAT,LON
1,1,UrgentCare1,Street 1,Meppel,DR,7940XX,yeah nice international support,3947779410,"URGENT MEDICAL CARE CENTERS AND CLINICS (EXCEPT HOSPITALS), FREESTANDING",Proprietary,No,Not Available,52.7047653217626,6.1977201775604
2,2,UrgentCare2,Street 2,Nijeveen,DR,7948ZG,yeah nice international support,5082153551,"URGENT MEDICAL CARE CENTERS AND CLINICS (EXCEPT HOSPITALS), FREESTANDING",Proprietary,No,Not Available,52.7324136614085,6.1674563735959
3,3,UrgentCare3,Street 3,Rogat,DR,7949AA,yeah nice international support,7666145821,"URGENT MEDICAL CARE CENTERS AND CLINICS (EXCEPT HOSPITALS), FREESTANDING",Proprietary,No,Not Available,52.6893614515206,6.2649033777878
4,4,UrgentCare4,Street 4,De Schiphorst,DR,7966AA,yeah nice international support,1235010051,"URGENT MEDICAL CARE CENTERS AND CLINICS (EXCEPT HOSPITALS), FREESTANDING",Proprietary,No,Not Available,52.6810346596460,6.2677156038989
5,5,UrgentCare5,Street 5,Broekhuizen,DR,7965AA,yeah nice international support,1287113937,"URGENT MEDICAL CARE CENTERS AND CLINICS (EXCEPT HOSPITALS), FREESTANDING",Proprietary,No,Not Available,52.6980433795338,6.2648200989814
6,6,UrgentCare6,Street 6,Amen,DR,9446PA,yeah nice international support,8549167320,"URGENT MEDICAL CARE CENTERS AND CLINICS (EXCEPT HOSPITALS), FREESTANDING",Proprietary,No,Not Available,52.9407716660838,6.6113290165326
7,7,UrgentCare7,Street 7,Anderen,DR,9465TJ,yeah nice international support,9632969758,"URGENT MEDICAL CARE CENTERS AND CLINICS (EXCEPT HOSPITALS), FREESTANDING",Proprietary,No,Not Available,53.0026228525645,6.6829326635056
8,8,UrgentCare8,Street 8,Anloo,DR,9467PA,yeah nice international support,2331776148,"URGENT MEDICAL CARE CENTERS AND CLINICS (EXCEPT HOSPITALS), FREESTANDING",Proprietary,No,Not Available,53.0439707651784,6.7026389230598
9,9,UrgentCare9,Street 9,Annen,DR,9468AA,yeah nice international support,6183117216,"URGENT MEDICAL CARE CENTERS AND CLINICS (EXCEPT HOSPITALS), FREESTANDING",Proprietary,No,Not Available,53.0643838141235,6.7118704264048
10,10,UrgentCare10,Street 10,Annerveenschekanaal,DR,9654PL,yeah nice international support,7480279449,"URGENT MEDICAL CARE CENTERS AND CLINICS (EXCEPT HOSPITALS), FREESTANDING",Proprietary,No,Not Available,53.0851554892198,6.7902882568134
11,11,UrgentCare11,Street 11,Balloo,DR,9458TA,yeah nice international support,1760398084,"URGENT MEDICAL CARE CENTERS AND CLINICS (EXCEPT HOSPITALS), FREESTANDING",Proprietary,No,Not Available,52.9959849737675,6.6312971042839
12,12,UrgentCare12,Street 12,Balloërveld,DR,9459TA,yeah nice international support,9263669287,"URGENT MEDICAL CARE CENTERS AND CLINICS (EXCEPT HOSPITALS), FREESTANDING",Proprietary,No,Not Available,53.0231412313115,6.6359542790648
13,13,UrgentCare13,Street 13,Deurze,DR,9457TA,yeah nice international support,3884491574,"URGENT MEDICAL CARE CENTERS AND CLINICS (EXCEPT HOSPITALS), FREESTANDING",Proprietary,No,Not Available,52.9821123753362,6.6097021858684
14,14,UrgentCare14,Street 14,Eext,DR,9463MA,yeah nice international support,9414458836,"URGENT MEDICAL CARE CENTERS AND CLINICS (EXCEPT HOSPITALS), FREESTANDING",Proprietary,No,Not Available,53.0213287392442,6.7389726389545
15,15,UrgentCare15,Street 15,Eexterveen,DR,9658PA,yeah nice international support,8211445515,"URGENT MEDICAL CARE CENTERS AND CLINICS (EXCEPT HOSPITALS), FREESTANDING",Proprietary,No,Not Available,53.0563462214705,6.7962770796279
16,16,UrgentCare16,Street 16,Eexterveenschekanaal,DR,9659PA,yeah nice international support,9838182873,"URGENT MEDICAL CARE CENTERS AND CLINICS (EXCEPT HOSPITALS), FREESTANDING",Proprietary,No,Not Available,53.0636272735372,6.8231525959599
17,17,UrgentCare17,Street 17,Eexterzandvoort,DR,9464TD,yeah nice international support,4472644968,"URGENT MEDICAL CARE CENTERS AND CLINICS (EXCEPT HOSPITALS), FREESTANDING",Proprietary,No,Not Available,53.0301547514026,6.7856581967306
18,18,UrgentCare18,Street 18,Ekehaar,DR,9454PD,yeah nice international support,1910584091,"URGENT MEDICAL CARE CENTERS AND CLINICS (EXCEPT HOSPITALS), FREESTANDING",Proprietary,No,Not Available,52.9531325235915,6.6008450962527
19,19,UrgentCare19,Street 19,Eldersloo,DR,9453VC,yeah nice international support,7539110790,"URGENT MEDICAL CARE CENTERS AND CLINICS (EXCEPT HOSPITALS), FREESTANDING",Proprietary,No,Not Available,52.9654030755410,6.6132138428813
20,20,UrgentCare20,Street 20,Eleveld,DR,9456TC,yeah nice international support,9853353331,"URGENT MEDICAL CARE CENTERS AND CLINICS (EXCEPT HOSPITALS), FREESTANDING",Proprietary,No,Not Available,52.9575395023157,6.5827889036511
21,21,UrgentCare21,Street 21,Gasselte,DR,9462PA,yeah nice international support,2324778273,"URGENT MEDICAL CARE CENTERS AND CLINICS (EXCEPT HOSPITALS), FREESTANDING",Proprietary,No,Not Available,52.9783583646979,6.7977267530492
22,22,UrgentCare22,Street 22,Gasselternijveen,DR,9514ZG,yeah nice international support,2138149956,"URGENT MEDICAL CARE CENTERS AND CLINICS (EXCEPT HOSPITALS), FREESTANDING",Proprietary,No,Not Available,52.9834755845128,6.8512370506053
23,23,UrgentCare23,Street 23,Gasselternijveenschemond,DR,9515AT,yeah nice international support,8693774911,"URGENT MEDICAL CARE CENTERS AND CLINICS (EXCEPT HOSPITALS), FREESTANDING",Proprietary,No,Not Available,52.9933635345261,6.9345136826910
24,24,UrgentCare24,Street 24,Gasteren,DR,9466PA,yeah nice international support,8183515637,"URGENT MEDICAL CARE CENTERS AND CLINICS (EXCEPT HOSPITALS), FREESTANDING",Proprietary,No,Not Available,53.0368817728548,6.6668874310516
25,25,UrgentCare25,Street 25,Gieten,DR,9461AA,yeah nice international support,7821866378,"URGENT MEDICAL CARE CENTERS AND CLINICS (EXCEPT HOSPITALS), FREESTANDING",Proprietary,No,Not Available,53.0060418767734,6.7661109593345
26,26,UrgentCare26,Street 26,Gieterveen,DR,9511PA,yeah nice international support,9342231109,"URGENT MEDICAL CARE CENTERS AND CLINICS (EXCEPT HOSPITALS), FREESTANDING",Proprietary,No,Not Available,53.0059916715450,6.8439416336380
27,27,UrgentCare27,Street 27,Grolloo,DR,9444PA,yeah nice international support,4797652072,"URGENT MEDICAL CARE CENTERS AND CLINICS (EXCEPT HOSPITALS), FREESTANDING",Proprietary,No,Not Available,52.9354187323033,6.6733522048377
28,28,UrgentCare28,Street 28,Marwijksoord,DR,9448TA,yeah nice international support,8193831650,"URGENT MEDICAL CARE CENTERS AND CLINICS (EXCEPT HOSPITALS), FREESTANDING",Proprietary,No,Not Available,52.9656756371320,6.6474806022663
29,29,UrgentCare29,Street 29,Nieuw Annerveen,DR,9657PC,yeah nice international support,4429961588,"URGENT MEDICAL CARE CENTERS AND CLINICS (EXCEPT HOSPITALS), FREESTANDING",Proprietary,No,Not Available,53.0691707551594,6.7756971915955
30,30,UrgentCare30,Street 30,Nieuwediep,DR,9512SB,yeah nice international support,9888298971,"URGENT MEDICAL CARE CENTERS AND CLINICS (EXCEPT HOSPITALS), FREESTANDING",Proprietary,No,Not Available,53.0512282365858,6.8435973977354
31,31,UrgentCare31,Street 31,Nijlande,DR,9452VA,yeah nice international support,6158288344,"URGENT MEDICAL CARE CENTERS AND CLINICS (EXCEPT HOSPITALS), FREESTANDING",Proprietary,No,Not Available,52.9736973580787,6.6253469692924
32,32,UrgentCare32,Street 32,Nooitgedacht,DR,9449PA,yeah nice international support,8304784443,"URGENT MEDICAL CARE CENTERS AND CLINICS (EXCEPT HOSPITALS), FREESTANDING",Proprietary,No,Not Available,52.9769717664803,6.6639617047157
33,33,UrgentCare33,Street 33,Oud Annerveen,DR,9655PD,yeah nice international support,5597786623,"URGENT MEDICAL CARE CENTERS AND CLINICS (EXCEPT HOSPITALS), FREESTANDING",Proprietary,No,Not Available,53.0877193796399,6.7640815663306
34,34,UrgentCare34,Street 34,Papenvoort,DR,9447TS,yeah nice international support,6587988459,"URGENT MEDICAL CARE CENTERS AND CLINICS (EXCEPT HOSPITALS), FREESTANDING",Proprietary,No,Not Available,52.9504395159460,6.7035724746593
35,35,UrgentCare35,Street 35,Rolde,DR,9451AA,yeah nice international support,9575641803,"URGENT MEDICAL CARE CENTERS AND CLINICS (EXCEPT HOSPITALS), FREESTANDING",Proprietary,No,Not Available,52.9881440905742,6.6400579824195
36,36,UrgentCare36,Street 36,Schipborg,DR,9469PE,yeah nice international support,1053361739,"URGENT MEDICAL CARE CENTERS AND CLINICS (EXCEPT HOSPITALS), FREESTANDING",Proprietary,No,Not Available,53.0734442785221,6.6688369496447
37,37,UrgentCare37,Street 37,Schoonloo,DR,9443PA,yeah nice international support,8150761883,"URGENT MEDICAL CARE CENTERS AND CLINICS (EXCEPT HOSPITALS), FREESTANDING",Proprietary,No,Not Available,52.9043022763330,6.7009175269416
38,38,UrgentCare38,Street 38,Spijkerboor,DR,9656PD,yeah nice international support,6129038907,"URGENT MEDICAL CARE CENTERS AND CLINICS (EXCEPT HOSPITALS), FREESTANDING",Proprietary,No,Not Available,53.0773912574770,6.7637237284725
39,39,UrgentCare39,Street 39,Vredenheim,DR,9445XE,yeah nice international support,3808658932,"URGENT MEDICAL CARE CENTERS AND CLINICS (EXCEPT HOSPITALS), FREESTANDING",Proprietary,No,Not Available,52.9450937755930,6.6611416990087
40,40,UrgentCare40,Street 40,Noordlaren,DR,9749TA,yeah nice international support,2473387780,"URGENT MEDICAL CARE CENTERS AND CLINICS (EXCEPT HOSPITALS), FREESTANDING",Proprietary,No,Not Available,53.1211705514080,6.6685822494692
41,41,UrgentCare41,Street 41,Alteveer,DR,9306TA,yeah nice international support,9185383115,"URGENT MEDICAL CARE CENTERS AND CLINICS (EXCEPT HOSPITALS), FREESTANDING",Proprietary,No,Not Available,53.1141148570697,6.4281898493686
42,42,UrgentCare42,Street 42,Een,DR,9342PA,yeah nice international support,6833742716,"URGENT MEDICAL CARE CENTERS AND CLINICS (EXCEPT HOSPITALS), FREESTANDING",Proprietary,No,Not Available,53.0738092092379,6.3924654496890
43,43,UrgentCare43,Street 43,Een-West,DR,9343TA,yeah nice international support,8715050020,"URGENT MEDICAL CARE CENTERS AND CLINICS (EXCEPT HOSPITALS), FREESTANDING",Proprietary,No,Not Available,53.0839726156678,6.3378949902542
44,44,UrgentCare44,Street 44,Foxwolde,DR,9314TA,yeah nice international support,6109623071,"URGENT MEDICAL CARE CENTERS AND CLINICS (EXCEPT HOSPITALS), FREESTANDING",Proprietary,No,Not Available,53.1519999162846,6.4593664645080
45,45,UrgentCare45,Street 45,Huis ter Heide,DR,9336TA,yeah nice international support,8311134652,"URGENT MEDICAL CARE CENTERS AND CLINICS (EXCEPT HOSPITALS), FREESTANDING",Proprietary,No,Not Available,53.0240930614410,6.4818472768473
46,46,UrgentCare46,Street 46,Langelo,DR,9333PA,yeah nice international support,4120281907,"URGENT MEDICAL CARE CENTERS AND CLINICS (EXCEPT HOSPITALS), FREESTANDING",Proprietary,No,Not Available,53.0925004627573,6.4433389682958
47,47,UrgentCare47,Street 47,Leutingewolde,DR,9313TE,yeah nice international support,4660772719,"URGENT MEDICAL CARE CENTERS AND CLINICS (EXCEPT HOSPITALS), FREESTANDING",Proprietary,No,Not Available,53.1563117940184,6.4323916533785
48,48,UrgentCare48,Street 48,Lieveren,DR,9304TG,yeah nice international support,7087659062,"URGENT MEDICAL CARE CENTERS AND CLINICS (EXCEPT HOSPITALS), FREESTANDING",Proprietary,No,Not Available,53.1167775464415,6.4816596762525
49,49,UrgentCare49,Street 49,Matsloot,DR,9749TJ,yeah nice international support,3315663110,"URGENT MEDICAL CARE CENTERS AND CLINICS (EXCEPT HOSPITALS), FREESTANDING",Proprietary,No,Not Available,53.1961828761430,6.4631706055768
50,50,UrgentCare50,Street 50,Nietap,DR,9312PA,yeah nice international support,4442961397,"URGENT MEDICAL CARE CENTERS AND CLINICS (EXCEPT HOSPITALS), FREESTANDING",Proprietary,No,Not Available,53.1633507239510,6.3952471472965
51,51,UrgentCare51,Street 51,Nieuw-Roden,DR,9311PA,yeah nice international support,9539813105,"URGENT MEDICAL CARE CENTERS AND CLINICS (EXCEPT HOSPITALS), FREESTANDING",Proprietary,No,Not Available,53.1311021123387,6.4011160821456
52,52,UrgentCare52,Street 52,Norg,DR,9331AA,yeah nice international support,1591569721,"URGENT MEDICAL CARE CENTERS AND CLINICS (EXCEPT HOSPITALS), FREESTANDING",Proprietary,No,Not Available,53.0667176980654,6.4604494540531
53,53,UrgentCare53,Street 53,Peest,DR,9334TA,yeah nice international support,2139585917,"URGENT MEDICAL CARE CENTERS AND CLINICS (EXCEPT HOSPITALS), FREESTANDING",Proprietary,No,Not Available,53.0605735718567,6.4976115877375
54,54,UrgentCare54,Street 54,Peize,DR,9321AA,yeah nice international support,8204764712,"URGENT MEDICAL CARE CENTERS AND CLINICS (EXCEPT HOSPITALS), FREESTANDING",Proprietary,No,Not Available,53.1488911404737,6.4904627592473
55,55,UrgentCare55,Street 55,Roden,DR,9300AA,yeah nice international support,9050264449,"URGENT MEDICAL CARE CENTERS AND CLINICS (EXCEPT HOSPITALS), FREESTANDING",Proprietary,No,Not Available,53.1375272563083,6.4335717044272
56,56,UrgentCare56,Street 56,Roderesch,DR,9305TA,yeah nice international support,8303989579,"URGENT MEDICAL CARE CENTERS AND CLINICS (EXCEPT HOSPITALS), FREESTANDING",Proprietary,No,Not Available,53.1175243516448,6.4198792908196
57,57,UrgentCare57,Street 57,Roderwolde,DR,9315PA,yeah nice international support,6909156333,"URGENT MEDICAL CARE CENTERS AND CLINICS (EXCEPT HOSPITALS), FREESTANDING",Proprietary,No,Not Available,53.1674131006727,6.4690670030119
58,58,UrgentCare58,Street 58,Steenbergen,DR,9307PA,yeah nice international support,5429879825,"URGENT MEDICAL CARE CENTERS AND CLINICS (EXCEPT HOSPITALS), FREESTANDING",Proprietary,No,Not Available,53.1003286050364,6.4063056229672
59,59,UrgentCare59,Street 59,Veenhuizen,DR,9341AA,yeah nice international support,4184312746,"URGENT MEDICAL CARE CENTERS AND CLINICS (EXCEPT HOSPITALS), FREESTANDING",Proprietary,No,Not Available,53.0414224134073,6.3913310606326
60,60,UrgentCare60,Street 60,Westervelde,DR,9337PA,yeah nice international support,7706343734,"URGENT MEDICAL CARE CENTERS AND CLINICS (EXCEPT HOSPITALS), FREESTANDING",Proprietary,No,Not Available,53.0521795250202,6.4438312610268
61,61,UrgentCare61,Street 61,Zuidvelde,DR,9335TA,yeah nice international support,5476771718,"URGENT MEDICAL CARE CENTERS AND CLINICS (EXCEPT HOSPITALS), FREESTANDING",Proprietary,No,Not Available,53.0459151849418,6.4581388213548
62,62,UrgentCare62,Street 62,Wolvega,DR,9471SX,yeah nice international support,8158377901,"URGENT MEDICAL CARE CENTERS AND CLINICS (EXCEPT HOSPITALS), FREESTANDING",Proprietary,No,Not Available,52.8700452824700,5.9949814506481
63,63,UrgentCare63,Street 63,Appelscha,DR,9422TK,yeah nice international support,1384065704,"URGENT MEDICAL CARE CENTERS AND CLINICS (EXCEPT HOSPITALS), FREESTANDING",Proprietary,No,Not Available,52.9461567324850,6.4053911619943
64,64,UrgentCare64,Street 64,1e Exloërmond,DR,9573PA,yeah nice international support,5112087610,"URGENT MEDICAL CARE CENTERS AND CLINICS (EXCEPT HOSPITALS), FREESTANDING",Proprietary,No,Not Available,52.9197994593135,6.9132677898224
65,65,UrgentCare65,Street 65,2e Exloërmond,DR,9571AA,yeah nice international support,1264975024,"URGENT MEDICAL CARE CENTERS AND CLINICS (EXCEPT HOSPITALS), FREESTANDING",Proprietary,No,Not Available,52.9003449607775,6.9182649917867
66,66,UrgentCare66,Street 66,2e Valthermond,DR,7877TA,yeah nice international support,6125624717,"URGENT MEDICAL CARE CENTERS AND CLINICS (EXCEPT HOSPITALS), FREESTANDING",Proprietary,No,Not Available,52.9081054824744,7.0201154897479
67,67,UrgentCare67,Street 67,Borger,DR,9531AA,yeah nice international support,3659802269,"URGENT MEDICAL CARE CENTERS AND CLINICS (EXCEPT HOSPITALS), FREESTANDING",Proprietary,No,Not Available,52.9264041815632,6.7902332044114
68,68,UrgentCare68,Street 68,Bronneger,DR,9527TA,yeah nice international support,6202729479,"URGENT MEDICAL CARE CENTERS AND CLINICS (EXCEPT HOSPITALS), FREESTANDING",Proprietary,No,Not Available,52.9528307747901,6.8230141138493
69,69,UrgentCare69,Street 69,Bronnegerveen,DR,9526TA,yeah nice international support,1282286269,"URGENT MEDICAL CARE CENTERS AND CLINICS (EXCEPT HOSPITALS), FREESTANDING",Proprietary,No,Not Available,52.9624610066101,6.8208559445770
70,70,UrgentCare70,Street 70,Buinen,DR,9528PA,yeah nice international support,2983331750,"URGENT MEDICAL CARE CENTERS AND CLINICS (EXCEPT HOSPITALS), FREESTANDING",Proprietary,No,Not Available,52.9325515626893,6.8263575009798
71,71,UrgentCare71,Street 71,Buinerveen,DR,9524PA,yeah nice international support,2403119657,"URGENT MEDICAL CARE CENTERS AND CLINICS (EXCEPT HOSPITALS), FREESTANDING",Proprietary,No,Not Available,52.9357119495107,6.8828432371927
72,72,UrgentCare72,Street 72,Drouwen,DR,9533PA,yeah nice international support,7829895923,"URGENT MEDICAL CARE CENTERS AND CLINICS (EXCEPT HOSPITALS), FREESTANDING",Proprietary,No,Not Available,52.9505029293999,6.7906194700024
73,73,UrgentCare73,Street 73,Drouwenermond,DR,9523AX,yeah nice international support,8621642512,"URGENT MEDICAL CARE CENTERS AND CLINICS (EXCEPT HOSPITALS), FREESTANDING",Proprietary,No,Not Available,52.9897742705658,6.9389578698883
74,74,UrgentCare74,Street 74,Drouwenerveen,DR,9525TA,yeah nice international support,3862113702,"URGENT MEDICAL CARE CENTERS AND CLINICS (EXCEPT HOSPITALS), FREESTANDING",Proprietary,No,Not Available,52.9743172095293,6.8449125291161
75,75,UrgentCare75,Street 75,Ees,DR,9536PA,yeah nice international support,2241334655,"URGENT MEDICAL CARE CENTERS AND CLINICS (EXCEPT HOSPITALS), FREESTANDING",Proprietary,No,Not Available,52.9116349553372,6.8013477378699
76,76,UrgentCare76,Street 76,Eesergroen,DR,9537TA,yeah nice international support,1482907257,"URGENT MEDICAL CARE CENTERS AND CLINICS (EXCEPT HOSPITALS), FREESTANDING",Proprietary,No,Not Available,52.8974548040103,6.7888934784125
77,77,UrgentCare77,Street 77,Eeserveen,DR,7858TA,yeah nice international support,8928831643,"URGENT MEDICAL CARE CENTERS AND CLINICS (EXCEPT HOSPITALS), FREESTANDING",Proprietary,No,Not Available,52.8836484928563,6.7420869342393
78,78,UrgentCare78,Street 78,Ellertshaar,DR,9535TA,yeah nice international support,5991797301,"URGENT MEDICAL CARE CENTERS AND CLINICS (EXCEPT HOSPITALS), FREESTANDING",Proprietary,No,Not Available,52.8949909383440,6.7378531337029
79,79,UrgentCare79,Street 79,Exloërveen,DR,9574PA,yeah nice international support,4064819019,"URGENT MEDICAL CARE CENTERS AND CLINICS (EXCEPT HOSPITALS), FREESTANDING",Proprietary,No,Not Available,52.9059725487764,6.9070902761145
80,80,UrgentCare80,Street 80,Exloo,DR,7875ZG,yeah nice international support,3978233018,"URGENT MEDICAL CARE CENTERS AND CLINICS (EXCEPT HOSPITALS), FREESTANDING",Proprietary,No,Not Available,52.8940994273602,6.8661210676215
81,81,UrgentCare81,Street 81,Klijndijk,DR,7871PA,yeah nice international support,2795498694,"URGENT MEDICAL CARE CENTERS AND CLINICS (EXCEPT HOSPITALS), FREESTANDING",Proprietary,No,Not Available,52.8336971392237,6.8587340195381
82,82,UrgentCare82,Street 82,Nieuw-Buinen,DR,9520AA,yeah nice international support,1598140041,"URGENT MEDICAL CARE CENTERS AND CLINICS (EXCEPT HOSPITALS), FREESTANDING",Proprietary,No,Not Available,52.0874102386733,4.6558271498448
83,83,UrgentCare83,Street 83,Odoorn,DR,7873ZG,yeah nice international support,2388862788,"URGENT MEDICAL CARE CENTERS AND CLINICS (EXCEPT HOSPITALS), FREESTANDING",Proprietary,No,Not Available,52.8539770255830,6.8433783346067
84,84,UrgentCare84,Street 84,Odoornerveen,DR,7874TB,yeah nice international support,5921919021,"URGENT MEDICAL CARE CENTERS AND CLINICS (EXCEPT HOSPITALS), FREESTANDING",Proprietary,No,Not Available,52.8555300465805,6.7620736572182
85,85,UrgentCare85,Street 85,Valthe,DR,7872PA,yeah nice international support,4953062911,"URGENT MEDICAL CARE CENTERS AND CLINICS (EXCEPT HOSPITALS), FREESTANDING",Proprietary,No,Not Available,52.8437994693403,6.8751648022064
86,86,UrgentCare86,Street 86,Valthermond,DR,7876AA,yeah nice international support,7221458280,"URGENT MEDICAL CARE CENTERS AND CLINICS (EXCEPT HOSPITALS), FREESTANDING",Proprietary,No,Not Available,52.8579439038722,6.9158275238713
87,87,UrgentCare87,Street 87,Westdorp,DR,9534PA,yeah nice international support,6918424343,"URGENT MEDICAL CARE CENTERS AND CLINICS (EXCEPT HOSPITALS), FREESTANDING",Proprietary,No,Not Available,52.9069481364923,6.7706549120700
88,88,UrgentCare88,Street 88,Zandberg,DR,9564PA,yeah nice international support,6637008055,"URGENT MEDICAL CARE CENTERS AND CLINICS (EXCEPT HOSPITALS), FREESTANDING",Proprietary,No,Not Available,52.9184521362954,7.0251740735821
89,89,UrgentCare89,Street 89,Alteveer gem Hoogeveen,DR,7907GC,yeah nice international support,8839692041,"URGENT MEDICAL CARE CENTERS AND CLINICS (EXCEPT HOSPITALS), FREESTANDING",Proprietary,No,Not Available,52.7064268576268,6.4776457618933
90,90,UrgentCare90,Street 90,Elim,DR,7916PA,yeah nice international support,2372812453,"URGENT MEDICAL CARE CENTERS AND CLINICS (EXCEPT HOSPITALS), FREESTANDING",Proprietary,No,Not Available,52.6808480335324,6.5807392065486
91,91,UrgentCare91,Street 91,Fluitenberg,DR,7931PA,yeah nice international support,2930018631,"URGENT MEDICAL CARE CENTERS AND CLINICS (EXCEPT HOSPITALS), FREESTANDING",Proprietary,No,Not Available,52.7338611132665,6.4465864492404
92,92,UrgentCare92,Street 92,Hollandscheveld,DR,7913AA,yeah nice international support,9252858217,"URGENT MEDICAL CARE CENTERS AND CLINICS (EXCEPT HOSPITALS), FREESTANDING",Proprietary,No,Not Available,52.7169982302821,6.5381568647910
93,93,UrgentCare93,Street 93,Hoogeveen,DR,7900AA,yeah nice international support,8902443631,"URGENT MEDICAL CARE CENTERS AND CLINICS (EXCEPT HOSPITALS), FREESTANDING",Proprietary,No,Not Available,52.7330831929254,6.4741786979159
94,94,UrgentCare94,Street 94,Nieuweroord,DR,7910TL,yeah nice international support,5912138218,"URGENT MEDICAL CARE CENTERS AND CLINICS (EXCEPT HOSPITALS), FREESTANDING",Proprietary,No,Not Available,52.7437889414680,6.5637894980521
95,95,UrgentCare95,Street 95,Nieuwlande,DR,7918AA,yeah nice international support,9672546632,"URGENT MEDICAL CARE CENTERS AND CLINICS (EXCEPT HOSPITALS), FREESTANDING",Proprietary,No,Not Available,52.7038461991803,6.6108216796928
96,96,UrgentCare96,Street 96,Noordscheschut,DR,7914NA,yeah nice international support,7517317514,"URGENT MEDICAL CARE CENTERS AND CLINICS (EXCEPT HOSPITALS), FREESTANDING",Proprietary,No,Not Available,52.7235508054090,6.5315027238563
97,97,UrgentCare97,Street 97,Pesse,DR,7933ZG,yeah nice international support,1815074904,"URGENT MEDICAL CARE CENTERS AND CLINICS (EXCEPT HOSPITALS), FREESTANDING",Proprietary,No,Not Available,52.7737996291750,6.4451466410290
98,98,UrgentCare98,Street 98,Stuifzand,DR,7934PA,yeah nice international support,9364679180,"URGENT MEDICAL CARE CENTERS AND CLINICS (EXCEPT HOSPITALS), FREESTANDING",Proprietary,No,Not Available,52.7410715000220,6.4808960519711
99,99,UrgentCare99,Street 99,Tiendeveen,DR,7936PA,yeah nice international support,8004488500,"URGENT MEDICAL CARE CENTERS AND CLINICS (EXCEPT HOSPITALS), FREESTANDING",Proprietary,No,Not Available,52.7456789300678,6.5448928082903
100,100,UrgentCare100,Street 100,Barger-Compascuum,DR,7884NA,yeah nice international support,3718450071,"URGENT MEDICAL CARE CENTERS AND CLINICS (EXCEPT HOSPITALS), FREESTANDING",Proprietary,No,Not Available,52.7563325502866,7.0437484366740
101,101,UrgentCare101,Street 101,Emmen,DR,7766AE,yeah nice international support,7169803385,"URGENT MEDICAL CARE CENTERS AND CLINICS (EXCEPT HOSPITALS), FREESTANDING",Proprietary,No,Not Available,52.7653618092690,6.9577362533303
102,102,UrgentCare102,Street 102,Emmer-Compascuum,DR,7880AA,yeah nice international support,8404056823,"URGENT MEDICAL CARE CENTERS AND CLINICS (EXCEPT HOSPITALS), FREESTANDING",Proprietary,No,Not Available,52.0874102386733,4.6558271498448
103,103,UrgentCare103,Street 103,Erica,DR,7881AG,yeah nice international support,3772702441,"URGENT MEDICAL CARE CENTERS AND CLINICS (EXCEPT HOSPITALS), FREESTANDING",Proprietary,No,Not Available,52.7139945096640,6.9197443669612
104,104,UrgentCare104,Street 104,Klazienaveen,DR,7890AA,yeah nice international support,7841778805,"URGENT MEDICAL CARE CENTERS AND CLINICS (EXCEPT HOSPITALS), FREESTANDING",Proprietary,No,Not Available,52.7268263176042,6.9700742903738
105,105,UrgentCare105,Street 105,Klazienaveen-Noord,DR,7889TS,yeah nice international support,2774569258,"URGENT MEDICAL CARE CENTERS AND CLINICS (EXCEPT HOSPITALS), FREESTANDING",Proprietary,No,Not Available,52.7570646765849,7.0044313089706
106,106,UrgentCare106,Street 106,Nieuw-Amsterdam,DR,7823GV,yeah nice international support,1116104765,"URGENT MEDICAL CARE CENTERS AND CLINICS (EXCEPT HOSPITALS), FREESTANDING",Proprietary,No,Not Available,52.7135172554980,6.8571836792147
107,107,UrgentCare107,Street 107,Nieuw-Dordrecht,DR,7823PG,yeah nice international support,9663495868,"URGENT MEDICAL CARE CENTERS AND CLINICS (EXCEPT HOSPITALS), FREESTANDING",Proprietary,No,Not Available,52.7921605311010,6.9360369606158
108,108,UrgentCare108,Street 108,Nieuw-Schoonebeek,DR,7766AA,yeah nice international support,9239763083,"URGENT MEDICAL CARE CENTERS AND CLINICS (EXCEPT HOSPITALS), FREESTANDING",Proprietary,No,Not Available,52.6494241146729,6.9452008649116
109,109,UrgentCare109,Street 109,Nieuw-Weerdinge,DR,7813HB,yeah nice international support,9531163850,"URGENT MEDICAL CARE CENTERS AND CLINICS (EXCEPT HOSPITALS), FREESTANDING",Proprietary,No,Not Available,52.8457809103340,6.9564693051457
110,110,UrgentCare110,Street 110,Roswinkel,DR,7895AA,yeah nice international support,4646721379,"URGENT MEDICAL CARE CENTERS AND CLINICS (EXCEPT HOSPITALS), FREESTANDING",Proprietary,No,Not Available,52.8382763772730,7.0417812231115
111,111,UrgentCare111,Street 111,Schoonebeek,DR,7761AA,yeah nice international support,4468966812,"URGENT MEDICAL CARE CENTERS AND CLINICS (EXCEPT HOSPITALS), FREESTANDING",Proprietary,No,Not Available,52.6580795769349,6.8956074475589
112,112,UrgentCare112,Street 112,Veenoord,DR,7761PV,yeah nice international support,2029050113,"URGENT MEDICAL CARE CENTERS AND CLINICS (EXCEPT HOSPITALS), FREESTANDING",Proprietary,No,Not Available,52.6842391107640,6.8640100403917
113,113,UrgentCare113,Street 113,Weiteveen,DR,7765AA,yeah nice international support,3008440571,"URGENT MEDICAL CARE CENTERS AND CLINICS (EXCEPT HOSPITALS), FREESTANDING",Proprietary,No,Not Available,52.6700921720222,6.9724598070074
114,114,UrgentCare114,Street 114,Zandpol,DR,7764AA,yeah nice international support,5423731422,"URGENT MEDICAL CARE CENTERS AND CLINICS (EXCEPT HOSPITALS), FREESTANDING",Proprietary,No,Not Available,52.6945704388065,6.8576593429629
115,115,UrgentCare115,Street 115,Zwartemeer,DR,7894AA,yeah nice international support,9471854123,"URGENT MEDICAL CARE CENTERS AND CLINICS (EXCEPT HOSPITALS), FREESTANDING",Proprietary,No,Not Available,52.7227764135314,7.0295302978460
116,116,UrgentCare116,Street 116,Aalden,DR,7854ZA,yeah nice international support,3956728189,"URGENT MEDICAL CARE CENTERS AND CLINICS (EXCEPT HOSPITALS), FREESTANDING",Proprietary,No,Not Available,52.7952859354016,6.7131453265780
117,117,UrgentCare117,Street 117,Benneveld,DR,7856PC,yeah nice international support,6355399364,"URGENT MEDICAL CARE CENTERS AND CLINICS (EXCEPT HOSPITALS), FREESTANDING",Proprietary,No,Not Available,52.7722170469250,6.7504429891042
118,118,UrgentCare118,Street 118,Coevorden,DR,7741AA,yeah nice international support,7389300587,"URGENT MEDICAL CARE CENTERS AND CLINICS (EXCEPT HOSPITALS), FREESTANDING",Proprietary,No,Not Available,52.6682078939464,6.7515412574604
119,119,UrgentCare119,Street 119,Dalen,DR,7750AA,yeah nice international support,8293546637,"URGENT MEDICAL CARE CENTERS AND CLINICS (EXCEPT HOSPITALS), FREESTANDING",Proprietary,No,Not Available,52.0874102386733,4.6558271498448
120,120,UrgentCare120,Street 120,Dalerpeel,DR,7753TA,yeah nice international support,6784230399,"URGENT MEDICAL CARE CENTERS AND CLINICS (EXCEPT HOSPITALS), FREESTANDING",Proprietary,No,Not Available,52.6824282310102,6.6893734366728
121,121,UrgentCare121,Street 121,Dalerveen,DR,7755NA,yeah nice international support,3401050629,"URGENT MEDICAL CARE CENTERS AND CLINICS (EXCEPT HOSPITALS), FREESTANDING",Proprietary,No,Not Available,52.4505833309611,6.6236688398675
122,122,UrgentCare122,Street 122,De Kiel,DR,7849PA,yeah nice international support,4387508244,"URGENT MEDICAL CARE CENTERS AND CLINICS (EXCEPT HOSPITALS), FREESTANDING",Proprietary,No,Not Available,52.8616886889255,6.7463686665252
123,123,UrgentCare123,Street 123,Diphoorn,DR,7842TA,yeah nice international support,4677188752,"URGENT MEDICAL CARE CENTERS AND CLINICS (EXCEPT HOSPITALS), FREESTANDING",Proprietary,No,Not Available,52.7705490165392,6.8176874500012
124,124,UrgentCare124,Street 124,Erm,DR,7843PA,yeah nice international support,6758522529,"URGENT MEDICAL CARE CENTERS AND CLINICS (EXCEPT HOSPITALS), FREESTANDING",Proprietary,No,Not Available,52.7535544548647,6.8191462827661
125,125,UrgentCare125,Street 125,Gees,DR,7863PA,yeah nice international support,5404122822,"URGENT MEDICAL CARE CENTERS AND CLINICS (EXCEPT HOSPITALS), FREESTANDING",Proprietary,No,Not Available,52.7499115471598,6.6920893774769
126,126,UrgentCare126,Street 126,Geesbrug,DR,7917PA,yeah nice international support,1453547599,"URGENT MEDICAL CARE CENTERS AND CLINICS (EXCEPT HOSPITALS), FREESTANDING",Proprietary,No,Not Available,52.7272680473793,6.6342710111204
127,127,UrgentCare127,Street 127,Holsloot,DR,7845TA,yeah nice international support,1775666788,"URGENT MEDICAL CARE CENTERS AND CLINICS (EXCEPT HOSPITALS), FREESTANDING",Proprietary,No,Not Available,52.7319180940095,6.7994492823223
128,128,UrgentCare128,Street 128,Meppen,DR,7855PA,yeah nice international support,2255737514,"URGENT MEDICAL CARE CENTERS AND CLINICS (EXCEPT HOSPITALS), FREESTANDING",Proprietary,No,Not Available,52.7829268320279,6.6992305737928
129,129,UrgentCare129,Street 129,Nieuwlande Coevorden,DR,7929TB,yeah nice international support,4755595706,"URGENT MEDICAL CARE CENTERS AND CLINICS (EXCEPT HOSPITALS), FREESTANDING",Proprietary,No,Not Available,52.6970567101155,6.6350368330631
130,130,UrgentCare130,Street 130,Noord-Sleen,DR,7846AA,yeah nice international support,2356123796,"URGENT MEDICAL CARE CENTERS AND CLINICS (EXCEPT HOSPITALS), FREESTANDING",Proprietary,No,Not Available,52.7885859220686,6.8054147886679
131,131,UrgentCare131,Street 131,Oosterhesselen,DR,7861AA,yeah nice international support,2456256611,"URGENT MEDICAL CARE CENTERS AND CLINICS (EXCEPT HOSPITALS), FREESTANDING",Proprietary,No,Not Available,52.7597082252553,6.7153456805215
132,132,UrgentCare132,Street 132,Schoonoord,DR,7848ZG,yeah nice international support,6769146943,"URGENT MEDICAL CARE CENTERS AND CLINICS (EXCEPT HOSPITALS), FREESTANDING",Proprietary,No,Not Available,52.8196975965312,6.8019491852512
133,133,UrgentCare133,Street 133,Sleen,DR,7841AA,yeah nice international support,6664053511,"URGENT MEDICAL CARE CENTERS AND CLINICS (EXCEPT HOSPITALS), FREESTANDING",Proprietary,No,Not Available,52.7727402937125,6.8028457339115
134,134,UrgentCare134,Street 134,Stieltjeskanaal,DR,7756PA,yeah nice international support,6617471788,"URGENT MEDICAL CARE CENTERS AND CLINICS (EXCEPT HOSPITALS), FREESTANDING",Proprietary,No,Not Available,52.6710893115592,6.7882458919538
135,135,UrgentCare135,Street 135,'t Haantje,DR,7847TA,yeah nice international support,3437551529,"URGENT MEDICAL CARE CENTERS AND CLINICS (EXCEPT HOSPITALS), FREESTANDING",Proprietary,No,Not Available,52.8147326230280,6.8301969650812
136,136,UrgentCare136,Street 136,Wachtum,DR,7754MA,yeah nice international support,4092318900,"URGENT MEDICAL CARE CENTERS AND CLINICS (EXCEPT HOSPITALS), FREESTANDING",Proprietary,No,Not Available,52.7240386160918,6.7498793643884
137,137,UrgentCare137,Street 137,Wezup,DR,7852PA,yeah nice international support,3319032438,"URGENT MEDICAL CARE CENTERS AND CLINICS (EXCEPT HOSPITALS), FREESTANDING",Proprietary,No,Not Available,52.8104307281590,6.7209106539959
138,138,UrgentCare138,Street 138,Wezuperbrug,DR,7853TA,yeah nice international support,1035393808,"URGENT MEDICAL CARE CENTERS AND CLINICS (EXCEPT HOSPITALS), FREESTANDING",Proprietary,No,Not Available,52.8412650791308,6.7304676443376
139,139,UrgentCare139,Street 139,Zweeloo,DR,7851AA,yeah nice international support,2403844559,"URGENT MEDICAL CARE CENTERS AND CLINICS (EXCEPT HOSPITALS), FREESTANDING",Proprietary,No,Not Available,52.7944974308635,6.7267185730601
140,140,UrgentCare140,Street 140,Zwinderen,DR,7864PK,yeah nice international support,6878545335,"URGENT MEDICAL CARE CENTERS AND CLINICS (EXCEPT HOSPITALS), FREESTANDING",Proprietary,No,Not Available,52.7042394648168,6.6774757107436
141,141,UrgentCare141,Street 141,Assen,DR,9400AA,yeah nice international support,5110839158,"URGENT MEDICAL CARE CENTERS AND CLINICS (EXCEPT HOSPITALS), FREESTANDING",Proprietary,No,Not Available,52.9968845842260,6.5701394585280
142,142,UrgentCare142,Street 142,Loon,DR,9409TG,yeah nice international support,4526973902,"URGENT MEDICAL CARE CENTERS AND CLINICS (EXCEPT HOSPITALS), FREESTANDING",Proprietary,No,Not Available,53.0120997421706,6.6109784223584
143,143,UrgentCare143,Street 143,Rhee,DR,9486TD,yeah nice international support,8716608039,"URGENT MEDICAL CARE CENTERS AND CLINICS (EXCEPT HOSPITALS), FREESTANDING",Proprietary,No,Not Available,53.0344214347260,6.5721274519442
144,144,UrgentCare144,Street 144,Ter Aard,DR,9487TA,yeah nice international support,5584457147,"URGENT MEDICAL CARE CENTERS AND CLINICS (EXCEPT HOSPITALS), FREESTANDING",Proprietary,No,Not Available,53.0270287759263,6.5453787378722
145,145,UrgentCare145,Street 145,Ubbena,DR,9492TA,yeah nice international support,6269878397,"URGENT MEDICAL CARE CENTERS AND CLINICS (EXCEPT HOSPITALS), FREESTANDING",Proprietary,No,Not Available,53.0490856108760,6.5744589063151
146,146,UrgentCare146,Street 146,Zeijerveen,DR,9489TH,yeah nice international support,8104743529,"URGENT MEDICAL CARE CENTERS AND CLINICS (EXCEPT HOSPITALS), FREESTANDING",Proprietary,No,Not Available,53.0179572727660,6.5262258226972
147,147,UrgentCare147,Street 147,Zeijerveld,DR,9488TA,yeah nice international support,2104293176,"URGENT MEDICAL CARE CENTERS AND CLINICS (EXCEPT HOSPITALS), FREESTANDING",Proprietary,No,Not Available,53.0334370008523,6.5207947393482
148,148,UrgentCare148,Street 148,Smilde,DR,9422ZG,yeah nice international support,7535421338,"URGENT MEDICAL CARE CENTERS AND CLINICS (EXCEPT HOSPITALS), FREESTANDING",Proprietary,No,Not Available,52.9476078048128,6.4919154347785
149,149,UrgentCare149,Street 149,Kallenkote,DR,7973JB,yeah nice international support,7083831530,"URGENT MEDICAL CARE CENTERS AND CLINICS (EXCEPT HOSPITALS), FREESTANDING",Proprietary,No,Not Available,52.7917670798688,6.1932290994998
150,150,UrgentCare150,Street 150,Zuidwolde,DR,7920AA,yeah nice international support,3350578075,"URGENT MEDICAL CARE CENTERS AND CLINICS (EXCEPT HOSPITALS), FREESTANDING",Proprietary,No,Not Available,53.2630699931489,6.5973478211668
151,151,UrgentCare151,Street 151,Eelde,DR,9760AA,yeah nice international support,9501570741,"URGENT MEDICAL CARE CENTERS AND CLINICS (EXCEPT HOSPITALS), FREESTANDING",Proprietary,No,Not Available,52.0874102386733,4.6558271498448
152,152,UrgentCare152,Street 152,Paterswolde,DR,9765AA,yeah nice international support,2527008449,"URGENT MEDICAL CARE CENTERS AND CLINICS (EXCEPT HOSPITALS), FREESTANDING",Proprietary,No,Not Available,53.1442541458116,6.5665239300427
153,153,UrgentCare153,Street 153,Eelderwolde,DR,9766PA,yeah nice international support,7591376951,"URGENT MEDICAL CARE CENTERS AND CLINICS (EXCEPT HOSPITALS), FREESTANDING",Proprietary,No,Not Available,53.1790468028918,6.5349546929551
154,154,UrgentCare154,Street 154,Vries,DR,9480AA,yeah nice international support,1717500304,"URGENT MEDICAL CARE CENTERS AND CLINICS (EXCEPT HOSPITALS), FREESTANDING",Proprietary,No,Not Available,53.0780860927762,6.5830698117220
155,155,UrgentCare155,Street 155,Zuidlaren,DR,9471AA,yeah nice international support,5778495221,"URGENT MEDICAL CARE CENTERS AND CLINICS (EXCEPT HOSPITALS), FREESTANDING",Proprietary,No,Not Available,53.0929976460294,6.6860819175505
156,156,UrgentCare156,Street 156,Bunne,DR,9496PA,yeah nice international support,1277272574,"URGENT MEDICAL CARE CENTERS AND CLINICS (EXCEPT HOSPITALS), FREESTANDING",Proprietary,No,Not Available,53.1140954809748,6.5333261113205
157,157,UrgentCare157,Street 157,De Punt,DR,9493AA,yeah nice international support,6500009439,"URGENT MEDICAL CARE CENTERS AND CLINICS (EXCEPT HOSPITALS), FREESTANDING",Proprietary,No,Not Available,53.1064385471632,6.6310903451581
158,158,UrgentCare158,Street 158,Donderen,DR,9497PA,yeah nice international support,1752912500,"URGENT MEDICAL CARE CENTERS AND CLINICS (EXCEPT HOSPITALS), FREESTANDING",Proprietary,No,Not Available,53.0927960975323,6.5528245900979
159,159,UrgentCare159,Street 159,Oudemolen,DR,9484TA,yeah nice international support,5018031412,"URGENT MEDICAL CARE CENTERS AND CLINICS (EXCEPT HOSPITALS), FREESTANDING",Proprietary,No,Not Available,53.0508304243487,6.6395500355240
160,160,UrgentCare160,Street 160,Taarlo,DR,9485TA,yeah nice international support,5139208989,"URGENT MEDICAL CARE CENTERS AND CLINICS (EXCEPT HOSPITALS), FREESTANDING",Proprietary,No,Not Available,53.0329224847987,6.6252127989263
161,161,UrgentCare161,Street 161,Tynaarlo,DR,9482WE,yeah nice international support,3765684666,"URGENT MEDICAL CARE CENTERS AND CLINICS (EXCEPT HOSPITALS), FREESTANDING",Proprietary,No,Not Available,53.0837185099063,6.6021972865674
162,162,UrgentCare162,Street 162,Winde,DR,9495PA,yeah nice international support,3848876436,"URGENT MEDICAL CARE CENTERS AND CLINICS (EXCEPT HOSPITALS), FREESTANDING",Proprietary,No,Not Available,53.1274605599552,6.5243284510052
163,163,UrgentCare163,Street 163,Yde,DR,9494PA,yeah nice international support,6210826867,"URGENT MEDICAL CARE CENTERS AND CLINICS (EXCEPT HOSPITALS), FREESTANDING",Proprietary,No,Not Available,53.1142715463731,6.5935046596842
164,164,UrgentCare164,Street 164,Zeegse,DR,9483PA,yeah nice international support,9768660701,"URGENT MEDICAL CARE CENTERS AND CLINICS (EXCEPT HOSPITALS), FREESTANDING",Proprietary,No,Not Available,53.0670896926613,6.6443026532020
165,165,UrgentCare165,Street 165,Zeijen,DR,9491AA,yeah nice international support,7599379793,"URGENT MEDICAL CARE CENTERS AND CLINICS (EXCEPT HOSPITALS), FREESTANDING",Proprietary,No,Not Available,53.0480189806550,6.5478837552927
166,166,UrgentCare166,Street 166,De Groeve,DR,9473TA,yeah nice international support,9743108884,"URGENT MEDICAL CARE CENTERS AND CLINICS (EXCEPT HOSPITALS), FREESTANDING",Proprietary,No,Not Available,53.1093677770594,6.7095669644424
167,167,UrgentCare167,Street 167,Zuidlaarderveen,DR,9474PA,yeah nice international support,2813084759,"URGENT MEDICAL CARE CENTERS AND CLINICS (EXCEPT HOSPITALS), FREESTANDING",Proprietary,No,Not Available,53.1060411900913,6.7477602874375
168,168,UrgentCare168,Street 168,Midlaren,DR,9475PA,yeah nice international support,1932170679,"URGENT MEDICAL CARE CENTERS AND CLINICS (EXCEPT HOSPITALS), FREESTANDING",Proprietary,No,Not Available,53.1099696031176,6.6784218909443
169,169,UrgentCare169,Street 169,Balinge,DR,9437TA,yeah nice international support,1697410736,"URGENT MEDICAL CARE CENTERS AND CLINICS (EXCEPT HOSPITALS), FREESTANDING",Proprietary,No,Not Available,52.8105598219961,6.6286194097353
170,170,UrgentCare170,Street 170,Beilen,DR,9411AA,yeah nice international support,5506549375,"URGENT MEDICAL CARE CENTERS AND CLINICS (EXCEPT HOSPITALS), FREESTANDING",Proprietary,No,Not Available,52.8605018154799,6.5114028399740
171,171,UrgentCare171,Street 171,Bovensmilde,DR,9420AA,yeah nice international support,6153467687,"URGENT MEDICAL CARE CENTERS AND CLINICS (EXCEPT HOSPITALS), FREESTANDING",Proprietary,No,Not Available,52.9780415776491,6.4877656290273
172,172,UrgentCare172,Street 172,Bruntinge,DR,9435TC,yeah nice international support,6242927497,"URGENT MEDICAL CARE CENTERS AND CLINICS (EXCEPT HOSPITALS), FREESTANDING",Proprietary,No,Not Available,52.8191653700922,6.5886324858098
173,173,UrgentCare173,Street 173,Drijber,DR,9419TE,yeah nice international support,6851488044,"URGENT MEDICAL CARE CENTERS AND CLINICS (EXCEPT HOSPITALS), FREESTANDING",Proprietary,No,Not Available,52.7787887241500,6.5416094799493
174,174,UrgentCare174,Street 174,Elp,DR,9442PA,yeah nice international support,6770978365,"URGENT MEDICAL CARE CENTERS AND CLINICS (EXCEPT HOSPITALS), FREESTANDING",Proprietary,No,Not Available,52.8828881050910,6.6448672170196
175,175,UrgentCare175,Street 175,Eursinge,DR,9434TA,yeah nice international support,5252345915,"URGENT MEDICAL CARE CENTERS AND CLINICS (EXCEPT HOSPITALS), FREESTANDING",Proprietary,No,Not Available,52.8408495996870,6.6042685190723
176,176,UrgentCare176,Street 176,Garminge,DR,9438TA,yeah nice international support,2987393410,"URGENT MEDICAL CARE CENTERS AND CLINICS (EXCEPT HOSPITALS), FREESTANDING",Proprietary,No,Not Available,52.8233389628123,6.6201958665537
177,177,UrgentCare177,Street 177,Hijken,DR,9415PA,yeah nice international support,5569279244,"URGENT MEDICAL CARE CENTERS AND CLINICS (EXCEPT HOSPITALS), FREESTANDING",Proprietary,No,Not Available,52.8934822341115,6.5024408523931
178,178,UrgentCare178,Street 178,Hoogersmilde,DR,9423NA,yeah nice international support,3396884247,"URGENT MEDICAL CARE CENTERS AND CLINICS (EXCEPT HOSPITALS), FREESTANDING",Proprietary,No,Not Available,52.9055498970499,6.3939224453176
179,179,UrgentCare179,Street 179,Hooghalen,DR,9414AA,yeah nice international support,2155172840,"URGENT MEDICAL CARE CENTERS AND CLINICS (EXCEPT HOSPITALS), FREESTANDING",Proprietary,No,Not Available,52.9203225398835,6.5417493992299
180,180,UrgentCare180,Street 180,Mantinge,DR,9436PE,yeah nice international support,2185134428,"URGENT MEDICAL CARE CENTERS AND CLINICS (EXCEPT HOSPITALS), FREESTANDING",Proprietary,No,Not Available,52.8040934168452,6.6130059387148
181,181,UrgentCare181,Street 181,Nieuw-Balinge,DR,7938PA,yeah nice international support,8398851786,"URGENT MEDICAL CARE CENTERS AND CLINICS (EXCEPT HOSPITALS), FREESTANDING",Proprietary,No,Not Available,52.7720207276703,6.6144901288095
182,182,UrgentCare182,Street 182,Oranje,DR,9416TA,yeah nice international support,7652397236,"URGENT MEDICAL CARE CENTERS AND CLINICS (EXCEPT HOSPITALS), FREESTANDING",Proprietary,No,Not Available,52.9069537620269,6.4485673951515
183,183,UrgentCare183,Street 183,Orvelte,DR,9441PC,yeah nice international support,4436884807,"URGENT MEDICAL CARE CENTERS AND CLINICS (EXCEPT HOSPITALS), FREESTANDING",Proprietary,No,Not Available,52.8437720901690,6.6578148054278
184,184,UrgentCare184,Street 184,Spier,DR,9417PG,yeah nice international support,2782090989,"URGENT MEDICAL CARE CENTERS AND CLINICS (EXCEPT HOSPITALS), FREESTANDING",Proprietary,No,Not Available,52.8034765554443,6.4753120958216
185,185,UrgentCare185,Street 185,Westerbork,DR,9423RC,yeah nice international support,8122742700,"URGENT MEDICAL CARE CENTERS AND CLINICS (EXCEPT HOSPITALS), FREESTANDING",Proprietary,No,Not Available,52.8579612950580,6.6006920727676
186,186,UrgentCare186,Street 186,Wijster,DR,9418ZG,yeah nice international support,9749373218,"URGENT MEDICAL CARE CENTERS AND CLINICS (EXCEPT HOSPITALS), FREESTANDING",Proprietary,No,Not Available,52.7892400624880,6.5018058441928
187,187,UrgentCare187,Street 187,Witteveen,DR,9439PA,yeah nice international support,8366470758,"URGENT MEDICAL CARE CENTERS AND CLINICS (EXCEPT HOSPITALS), FREESTANDING",Proprietary,No,Not Available,52.8151202706739,6.6582898651505
188,188,UrgentCare188,Street 188,Zuidveld,DR,9432TR,yeah nice international support,4762714912,"URGENT MEDICAL CARE CENTERS AND CLINICS (EXCEPT HOSPITALS), FREESTANDING",Proprietary,No,Not Available,52.8660836747285,6.6359535322286
189,189,UrgentCare189,Street 189,Zwiggelte,DR,9433PA,yeah nice international support,9843342897,"URGENT MEDICAL CARE CENTERS AND CLINICS (EXCEPT HOSPITALS), FREESTANDING",Proprietary,No,Not Available,52.8735712572262,6.5878543392686
190,190,UrgentCare190,Street 190,Ansen,DR,7964KD,yeah nice international support,6208641749,"URGENT MEDICAL CARE CENTERS AND CLINICS (EXCEPT HOSPITALS), FREESTANDING",Proprietary,No,Not Available,52.7868490135020,6.3568956578635
191,191,UrgentCare191,Street 191,Boschoord,DR,8387GK,yeah nice international support,9114765656,"URGENT MEDICAL CARE CENTERS AND CLINICS (EXCEPT HOSPITALS), FREESTANDING",Proprietary,No,Not Available,52.8915820429508,6.2221922316807
192,192,UrgentCare192,Street 192,Darp,DR,7973JA,yeah nice international support,6862129650,"URGENT MEDICAL CARE CENTERS AND CLINICS (EXCEPT HOSPITALS), FREESTANDING",Proprietary,No,Not Available,52.7931818659010,6.2271321055166
193,193,UrgentCare193,Street 193,Diever,DR,7981AA,yeah nice international support,5100853140,"URGENT MEDICAL CARE CENTERS AND CLINICS (EXCEPT HOSPITALS), FREESTANDING",Proprietary,No,Not Available,52.8575241647878,6.3144353341506
194,194,UrgentCare194,Street 194,Dieverbrug,DR,7984NA,yeah nice international support,4016649150,"URGENT MEDICAL CARE CENTERS AND CLINICS (EXCEPT HOSPITALS), FREESTANDING",Proprietary,No,Not Available,52.8469363153324,6.3315455605986
195,195,UrgentCare195,Street 195,Doldersum,DR,8386XA,yeah nice international support,9561476182,"URGENT MEDICAL CARE CENTERS AND CLINICS (EXCEPT HOSPITALS), FREESTANDING",Proprietary,No,Not Available,52.8741319949430,6.2413470611931
196,196,UrgentCare196,Street 196,Dwingeloo,DR,7990AA,yeah nice international support,5921615080,"URGENT MEDICAL CARE CENTERS AND CLINICS (EXCEPT HOSPITALS), FREESTANDING",Proprietary,No,Not Available,52.8120552065581,6.3448527755422
197,197,UrgentCare197,Street 197,Frederiksoord,DR,8381AE,yeah nice international support,2587623213,"URGENT MEDICAL CARE CENTERS AND CLINICS (EXCEPT HOSPITALS), FREESTANDING",Proprietary,No,Not Available,52.8464199772290,6.1894426215390
198,198,UrgentCare198,Street 198,Geeuwenbrug,DR,7984ND,yeah nice international support,7456294450,"URGENT MEDICAL CARE CENTERS AND CLINICS (EXCEPT HOSPITALS), FREESTANDING",Proprietary,No,Not Available,52.8410439501900,6.3350517854146
199,199,UrgentCare199,Street 199,Havelte,DR,7971AA,yeah nice international support,9164796056,"URGENT MEDICAL CARE CENTERS AND CLINICS (EXCEPT HOSPITALS), FREESTANDING",Proprietary,No,Not Available,52.7786847430446,6.2441575194073
200,200,UrgentCare200,Street 200,Havelterberg,DR,7974HA,yeah nice international support,4962416240,"URGENT MEDICAL CARE CENTERS AND CLINICS (EXCEPT HOSPITALS), FREESTANDING",Proprietary,No,Not Available,52.7740336527440,6.1825637574701
201,201,UrgentCare201,Street 201,Nijensleek,DR,8382AA,yeah nice international support,2176950035,"URGENT MEDICAL CARE CENTERS AND CLINICS (EXCEPT HOSPITALS), FREESTANDING",Proprietary,No,Not Available,52.8351422958067,6.1858062432200
202,202,UrgentCare202,Street 202,Oude Willem,DR,8439SL,yeah nice international support,4368231514,"URGENT MEDICAL CARE CENTERS AND CLINICS (EXCEPT HOSPITALS), FREESTANDING",Proprietary,No,Not Available,52.8979058902725,6.3018780513668
203,203,UrgentCare203,Street 203,Ruinen,DR,7963RA,yeah nice international support,7683765929,"URGENT MEDICAL CARE CENTERS AND CLINICS (EXCEPT HOSPITALS), FREESTANDING",Proprietary,No,Not Available,52.7843699885357,6.3767445794916
204,204,UrgentCare204,Street 204,Uffelte,DR,7975AA,yeah nice international support,7151965609,"URGENT MEDICAL CARE CENTERS AND CLINICS (EXCEPT HOSPITALS), FREESTANDING",Proprietary,No,Not Available,52.7877242782354,6.2770728826955
205,205,UrgentCare205,Street 205,Vledder,DR,7971YY,yeah nice international support,3091576466,"URGENT MEDICAL CARE CENTERS AND CLINICS (EXCEPT HOSPITALS), FREESTANDING",Proprietary,No,Not Available,52.8681840821500,6.2003310768176
206,206,UrgentCare206,Street 206,Vledderveen,DR,8385GA,yeah nice international support,2212568400,"URGENT MEDICAL CARE CENTERS AND CLINICS (EXCEPT HOSPITALS), FREESTANDING",Proprietary,No,Not Available,52.8751224921294,6.1841872661543
207,207,UrgentCare207,Street 207,Wapse,DR,7983KA,yeah nice international support,5503167665,"URGENT MEDICAL CARE CENTERS AND CLINICS (EXCEPT HOSPITALS), FREESTANDING",Proprietary,No,Not Available,52.8558306600265,6.2855679568911
208,208,UrgentCare208,Street 208,Wapserveen,DR,8351GA,yeah nice international support,7598030433,"URGENT MEDICAL CARE CENTERS AND CLINICS (EXCEPT HOSPITALS), FREESTANDING",Proprietary,No,Not Available,52.8103407190470,6.2113247642656
209,209,UrgentCare209,Street 209,Wateren,DR,8438SB,yeah nice international support,7973075395,"URGENT MEDICAL CARE CENTERS AND CLINICS (EXCEPT HOSPITALS), FREESTANDING",Proprietary,No,Not Available,52.9129436676439,6.2749640218066
210,210,UrgentCare210,Street 210,Wilhelminaoord,DR,8384DA,yeah nice international support,1351946713,"URGENT MEDICAL CARE CENTERS AND CLINICS (EXCEPT HOSPITALS), FREESTANDING",Proprietary,No,Not Available,52.8569435077065,6.1600339631180
211,211,UrgentCare211,Street 211,Wittelte,DR,7986PA,yeah nice international support,5500047840,"URGENT MEDICAL CARE CENTERS AND CLINICS (EXCEPT HOSPITALS), FREESTANDING",Proprietary,No,Not Available,52.8349468944960,6.2751993097868
212,212,UrgentCare212,Street 212,Zorgvlied,DR,8437PA,yeah nice international support,5052003905,"URGENT MEDICAL CARE CENTERS AND CLINICS (EXCEPT HOSPITALS), FREESTANDING",Proprietary,No,Not Available,52.9210672349076,6.2552906745987
213,213,UrgentCare213,Street 213,de Wijk,DR,7924PJ,yeah nice international support,1410322752,"URGENT MEDICAL CARE CENTERS AND CLINICS (EXCEPT HOSPITALS), FREESTANDING",Proprietary,No,Not Available,52.6731609149510,6.3526724511693
214,214,UrgentCare214,Street 214,Drogteropslagen,DR,7705PA,yeah nice international support,6894269217,"URGENT MEDICAL CARE CENTERS AND CLINICS (EXCEPT HOSPITALS), FREESTANDING",Proprietary,No,Not Available,52.6238237917280,6.4819627435812
215,215,UrgentCare215,Street 215,Echten,DR,7932PA,yeah nice international support,6614313135,"URGENT MEDICAL CARE CENTERS AND CLINICS (EXCEPT HOSPITALS), FREESTANDING",Proprietary,No,Not Available,52.7171541562375,6.4017821852798
216,216,UrgentCare216,Street 216,Kerkenveld,DR,7926AA,yeah nice international support,1943613320,"URGENT MEDICAL CARE CENTERS AND CLINICS (EXCEPT HOSPITALS), FREESTANDING",Proprietary,No,Not Available,52.6686491209428,6.5039248368312
217,217,UrgentCare217,Street 217,Koekange,DR,7958NA,yeah nice international support,2989710666,"URGENT MEDICAL CARE CENTERS AND CLINICS (EXCEPT HOSPITALS), FREESTANDING",Proprietary,No,Not Available,52.6778357656475,6.3245586191923
218,218,UrgentCare218,Street 218,Linde,DR,7925PA,yeah nice international support,7146778751,"URGENT MEDICAL CARE CENTERS AND CLINICS (EXCEPT HOSPITALS), FREESTANDING",Proprietary,No,Not Available,52.6383922213255,6.4475940665662
219,219,UrgentCare219,Street 219,Ruinerwold,DR,7963SN,yeah nice international support,8752967116,"URGENT MEDICAL CARE CENTERS AND CLINICS (EXCEPT HOSPITALS), FREESTANDING",Proprietary,No,Not Available,52.7272818140575,6.3220894156089
220,220,UrgentCare220,Street 220,Veeningen,DR,7924PA,yeah nice international support,8432260190,"URGENT MEDICAL CARE CENTERS AND CLINICS (EXCEPT HOSPITALS), FREESTANDING",Proprietary,No,Not Available,52.6817527985054,6.3927666060973
221,221,UrgentCare221,Street 221,Lelystad,FL,8212WB,yeah nice international support,2140875452,"URGENT MEDICAL CARE CENTERS AND CLINICS (EXCEPT HOSPITALS), FREESTANDING",Proprietary,No,Not Available,52.5111376394633,5.5087541665709
222,222,UrgentCare222,Street 222,Zeewolde,FL,3890AA,yeah nice international support,8686923411,"URGENT MEDICAL CARE CENTERS AND CLINICS (EXCEPT HOSPITALS), FREESTANDING",Proprietary,No,Not Available,52.3575537013167,5.5101893026296
223,223,UrgentCare223,Street 223,Afferden L,FL,5851AA,yeah nice international support,9578760367,"URGENT MEDICAL CARE CENTERS AND CLINICS (EXCEPT HOSPITALS), FREESTANDING",Proprietary,No,Not Available,51.6219126753669,6.0291897628014
224,224,UrgentCare224,Street 224,Siebengewald,FL,5851EL,yeah nice international support,9967048418,"URGENT MEDICAL CARE CENTERS AND CLINICS (EXCEPT HOSPITALS), FREESTANDING",Proprietary,No,Not Available,51.6558330210760,6.0933930330321
225,225,UrgentCare225,Street 225,Almere,FL,1300AA,yeah nice international support,9528292143,"URGENT MEDICAL CARE CENTERS AND CLINICS (EXCEPT HOSPITALS), FREESTANDING",Proprietary,No,Not Available,52.4169071209224,5.2197141254597
226,226,UrgentCare226,Street 226,Emmeloord,FL,8300AA,yeah nice international support,6430193442,"URGENT MEDICAL CARE CENTERS AND CLINICS (EXCEPT HOSPITALS), FREESTANDING",Proprietary,No,Not Available,52.7092885607071,5.7523740038317
227,227,UrgentCare227,Street 227,Bant,FL,8314AA,yeah nice international support,3552437724,"URGENT MEDICAL CARE CENTERS AND CLINICS (EXCEPT HOSPITALS), FREESTANDING",Proprietary,No,Not Available,52.7667091922299,5.7510199602564
228,228,UrgentCare228,Street 228,Luttelgeest,FL,8315AA,yeah nice international support,6521160967,"URGENT MEDICAL CARE CENTERS AND CLINICS (EXCEPT HOSPITALS), FREESTANDING",Proprietary,No,Not Available,52.7427458783628,5.8554268316901
229,229,UrgentCare229,Street 229,Marknesse,FL,8316AA,yeah nice international support,2039354276,"URGENT MEDICAL CARE CENTERS AND CLINICS (EXCEPT HOSPITALS), FREESTANDING",Proprietary,No,Not Available,52.7069687243776,5.8642244051871
230,230,UrgentCare230,Street 230,Kraggenburg,FL,8317AA,yeah nice international support,9579800709,"URGENT MEDICAL CARE CENTERS AND CLINICS (EXCEPT HOSPITALS), FREESTANDING",Proprietary,No,Not Available,52.6634358688876,5.9020538438613
231,231,UrgentCare231,Street 231,Ens,FL,8307AA,yeah nice international support,2349582010,"URGENT MEDICAL CARE CENTERS AND CLINICS (EXCEPT HOSPITALS), FREESTANDING",Proprietary,No,Not Available,52.6393271212347,5.8225435663377
232,232,UrgentCare232,Street 232,Schokland,FL,8319AA,yeah nice international support,8024909786,"URGENT MEDICAL CARE CENTERS AND CLINICS (EXCEPT HOSPITALS), FREESTANDING",Proprietary,No,Not Available,52.6371194221463,5.7750089247856
233,233,UrgentCare233,Street 233,Nagele,FL,8308AA,yeah nice international support,3725085700,"URGENT MEDICAL CARE CENTERS AND CLINICS (EXCEPT HOSPITALS), FREESTANDING",Proprietary,No,Not Available,52.6424138004275,5.7221038167767
234,234,UrgentCare234,Street 234,Tollebeek,FL,8309AA,yeah nice international support,1110291576,"URGENT MEDICAL CARE CENTERS AND CLINICS (EXCEPT HOSPITALS), FREESTANDING",Proprietary,No,Not Available,52.6768129488533,5.6778648062615
235,235,UrgentCare235,Street 235,Espel,FL,8311AA,yeah nice international support,9154650895,"URGENT MEDICAL CARE CENTERS AND CLINICS (EXCEPT HOSPITALS), FREESTANDING",Proprietary,No,Not Available,52.7220985367754,5.6450559437554
236,236,UrgentCare236,Street 236,Creil,FL,8312AA,yeah nice international support,9069956428,"URGENT MEDICAL CARE CENTERS AND CLINICS (EXCEPT HOSPITALS), FREESTANDING",Proprietary,No,Not Available,52.7617607625911,5.6625339910995
237,237,UrgentCare237,Street 237,Rutten,FL,8312PW,yeah nice international support,9186866059,"URGENT MEDICAL CARE CENTERS AND CLINICS (EXCEPT HOSPITALS), FREESTANDING",Proprietary,No,Not Available,52.8015336397740,5.6347076061604
238,238,UrgentCare238,Street 238,Urk,FL,8321AA,yeah nice international support,7719068315,"URGENT MEDICAL CARE CENTERS AND CLINICS (EXCEPT HOSPITALS), FREESTANDING",Proprietary,No,Not Available,52.6647074219866,5.6090065708639
239,239,UrgentCare239,Street 239,Biddinghuizen,FL,8256ZG,yeah nice international support,9199150299,"URGENT MEDICAL CARE CENTERS AND CLINICS (EXCEPT HOSPITALS), FREESTANDING",Proprietary,No,Not Available,52.3900059374607,5.6400806275951
240,240,UrgentCare240,Street 240,Dronten,FL,8251AA,yeah nice international support,6860293954,"URGENT MEDICAL CARE CENTERS AND CLINICS (EXCEPT HOSPITALS), FREESTANDING",Proprietary,No,Not Available,52.5200027762604,5.7084340541237
241,241,UrgentCare241,Street 241,Swifterbant,FL,8255AA,yeah nice international support,9650537874,"URGENT MEDICAL CARE CENTERS AND CLINICS (EXCEPT HOSPITALS), FREESTANDING",Proprietary,No,Not Available,52.5718719385949,5.6441495611276
242,242,UrgentCare242,Street 242,Lekkum,FR,9081AD,yeah nice international support,5577601358,"URGENT MEDICAL CARE CENTERS AND CLINICS (EXCEPT HOSPITALS), FREESTANDING",Proprietary,No,Not Available,53.2251778184375,5.8184497450646
243,243,UrgentCare243,Street 243,Miedum,FR,9082AW,yeah nice international support,3679558205,"URGENT MEDICAL CARE CENTERS AND CLINICS (EXCEPT HOSPITALS), FREESTANDING",Proprietary,No,Not Available,53.2365218328088,5.8399673204123
244,244,UrgentCare244,Street 244,Snakkerburen,FR,9083AA,yeah nice international support,6438189240,"URGENT MEDICAL CARE CENTERS AND CLINICS (EXCEPT HOSPITALS), FREESTANDING",Proprietary,No,Not Available,53.2218803202492,5.8082658464140
245,245,UrgentCare245,Street 245,Hempens,FR,9086CA,yeah nice international support,4627778270,"URGENT MEDICAL CARE CENTERS AND CLINICS (EXCEPT HOSPITALS), FREESTANDING",Proprietary,No,Not Available,53.1791107991003,5.8360862651648
246,246,UrgentCare246,Street 246,Teerns,FR,9085BZ,yeah nice international support,9365165052,"URGENT MEDICAL CARE CENTERS AND CLINICS (EXCEPT HOSPITALS), FREESTANDING",Proprietary,No,Not Available,53.1803162144865,5.8342407264441
247,247,UrgentCare247,Street 247,Swichum,FR,9087CC,yeah nice international support,8403814789,"URGENT MEDICAL CARE CENTERS AND CLINICS (EXCEPT HOSPITALS), FREESTANDING",Proprietary,No,Not Available,53.1537109764730,5.8206054724966
248,248,UrgentCare248,Street 248,Wytgaard,FR,9089BA,yeah nice international support,6800635659,"URGENT MEDICAL CARE CENTERS AND CLINICS (EXCEPT HOSPITALS), FREESTANDING",Proprietary,No,Not Available,53.1431004443154,5.7861830202205
249,249,UrgentCare249,Street 249,Emst,FR,8611JW,yeah nice international support,7179157480,"URGENT MEDICAL CARE CENTERS AND CLINICS (EXCEPT HOSPITALS), FREESTANDING",Proprietary,No,Not Available,52.3052054364840,5.9607258927674
250,250,UrgentCare250,Street 250,Tzum,FR,8801PX,yeah nice international support,6239196514,"URGENT MEDICAL CARE CENTERS AND CLINICS (EXCEPT HOSPITALS), FREESTANDING",Proprietary,No,Not Available,53.1662494377120,5.5387508587354
251,251,UrgentCare251,Street 251,Hitzum,FR,8805TB,yeah nice international support,2188082595,"URGENT MEDICAL CARE CENTERS AND CLINICS (EXCEPT HOSPITALS), FREESTANDING",Proprietary,No,Not Available,53.1646739761570,5.5277438902897
252,252,UrgentCare252,Street 252,Achlum,FR,8806KA,yeah nice international support,7580197605,"URGENT MEDICAL CARE CENTERS AND CLINICS (EXCEPT HOSPITALS), FREESTANDING",Proprietary,No,Not Available,53.1641892021326,5.4966468061436
253,253,UrgentCare253,Street 253,Herbaijum,FR,8807PA,yeah nice international support,7303929262,"URGENT MEDICAL CARE CENTERS AND CLINICS (EXCEPT HOSPITALS), FREESTANDING",Proprietary,No,Not Available,53.1863729348774,5.4956000014261
254,254,UrgentCare254,Street 254,Franeker,FR,8801AA,yeah nice international support,4248809866,"URGENT MEDICAL CARE CENTERS AND CLINICS (EXCEPT HOSPITALS), FREESTANDING",Proprietary,No,Not Available,53.1848955209775,5.5488813085767
255,255,UrgentCare255,Street 255,Zweins,FR,8814JV,yeah nice international support,6011177687,"URGENT MEDICAL CARE CENTERS AND CLINICS (EXCEPT HOSPITALS), FREESTANDING",Proprietary,No,Not Available,53.1940847598816,5.6046491327792
256,256,UrgentCare256,Street 256,Peins,FR,8812JH,yeah nice international support,9688632933,"URGENT MEDICAL CARE CENTERS AND CLINICS (EXCEPT HOSPITALS), FREESTANDING",Proprietary,No,Not Available,53.2069489268700,5.5971470724412
257,257,UrgentCare257,Street 257,Schalsum,FR,8813JA,yeah nice international support,2158842890,"URGENT MEDICAL CARE CENTERS AND CLINICS (EXCEPT HOSPITALS), FREESTANDING",Proprietary,No,Not Available,53.1969872315627,5.5699212680684
258,258,UrgentCare258,Street 258,Ried,FR,8811HA,yeah nice international support,7007551237,"URGENT MEDICAL CARE CENTERS AND CLINICS (EXCEPT HOSPITALS), FREESTANDING",Proprietary,No,Not Available,53.2211181439698,5.5852077892510
259,259,UrgentCare259,Street 259,Boer,FR,8809HW,yeah nice international support,5888068528,"URGENT MEDICAL CARE CENTERS AND CLINICS (EXCEPT HOSPITALS), FREESTANDING",Proprietary,No,Not Available,53.2125255314630,5.5632737709346
260,260,UrgentCare260,Street 260,Dongjum,FR,8808HA,yeah nice international support,8914539462,"URGENT MEDICAL CARE CENTERS AND CLINICS (EXCEPT HOSPITALS), FREESTANDING",Proprietary,No,Not Available,53.2064350996075,5.5432726868019
261,261,UrgentCare261,Street 261,Sexbierum,FR,8851RM,yeah nice international support,3208897323,"URGENT MEDICAL CARE CENTERS AND CLINICS (EXCEPT HOSPITALS), FREESTANDING",Proprietary,No,Not Available,53.2574928215973,5.5295975372321
262,262,UrgentCare262,Street 262,Pietersbierum,FR,8856BS,yeah nice international support,2280486864,"URGENT MEDICAL CARE CENTERS AND CLINICS (EXCEPT HOSPITALS), FREESTANDING",Proprietary,No,Not Available,53.2152398286595,5.4710917827122
263,263,UrgentCare263,Street 263,Oosterbierum,FR,8854AA,yeah nice international support,2645481923,"URGENT MEDICAL CARE CENTERS AND CLINICS (EXCEPT HOSPITALS), FREESTANDING",Proprietary,No,Not Available,53.2332287441898,5.5095394540358
264,264,UrgentCare264,Street 264,Klooster Lidlum,FR,8853AS,yeah nice international support,7997443447,"URGENT MEDICAL CARE CENTERS AND CLINICS (EXCEPT HOSPITALS), FREESTANDING",Proprietary,No,Not Available,53.2349011841175,5.5156170717630
265,265,UrgentCare265,Street 265,Tzummarum,FR,8851EA,yeah nice international support,4115641777,"URGENT MEDICAL CARE CENTERS AND CLINICS (EXCEPT HOSPITALS), FREESTANDING",Proprietary,No,Not Available,53.2371263942678,5.5518966209749
266,266,UrgentCare266,Street 266,Firdgum,FR,8852RG,yeah nice international support,4189079311,"URGENT MEDICAL CARE CENTERS AND CLINICS (EXCEPT HOSPITALS), FREESTANDING",Proprietary,No,Not Available,53.2441821545595,5.5685973593263
267,267,UrgentCare267,Street 267,Bakhuizen,FR,8574RA,yeah nice international support,4049614879,"URGENT MEDICAL CARE CENTERS AND CLINICS (EXCEPT HOSPITALS), FREESTANDING",Proprietary,No,Not Available,52.8687292945388,5.4626029867859
268,268,UrgentCare268,Street 268,Balk,FR,8560AA,yeah nice international support,3234485412,"URGENT MEDICAL CARE CENTERS AND CLINICS (EXCEPT HOSPITALS), FREESTANDING",Proprietary,No,Not Available,52.8972625213653,5.5774698625328
269,269,UrgentCare269,Street 269,Elahuizen,FR,8581KA,yeah nice international support,2203984865,"URGENT MEDICAL CARE CENTERS AND CLINICS (EXCEPT HOSPITALS), FREESTANDING",Proprietary,No,Not Available,52.9135462981828,5.5380535843416
270,270,UrgentCare270,Street 270,Harich,FR,8571GA,yeah nice international support,7578986641,"URGENT MEDICAL CARE CENTERS AND CLINICS (EXCEPT HOSPITALS), FREESTANDING",Proprietary,No,Not Available,52.8810699829055,5.5380188251782
271,271,UrgentCare271,Street 271,Kolderwolde,FR,8583KL,yeah nice international support,3939937549,"URGENT MEDICAL CARE CENTERS AND CLINICS (EXCEPT HOSPITALS), FREESTANDING",Proprietary,No,Not Available,52.8911427574773,5.4931635712755
272,272,UrgentCare272,Street 272,Mirns,FR,8573WN,yeah nice international support,4672313728,"URGENT MEDICAL CARE CENTERS AND CLINICS (EXCEPT HOSPITALS), FREESTANDING",Proprietary,No,Not Available,52.8579844263125,5.4631416706453
273,273,UrgentCare273,Street 273,Nijemirdum,FR,8566HJ,yeah nice international support,1823035473,"URGENT MEDICAL CARE CENTERS AND CLINICS (EXCEPT HOSPITALS), FREESTANDING",Proprietary,No,Not Available,52.8558593384424,5.5785916085366
274,274,UrgentCare274,Street 274,Oudega,FR,8582KM,yeah nice international support,5941512656,"URGENT MEDICAL CARE CENTERS AND CLINICS (EXCEPT HOSPITALS), FREESTANDING",Proprietary,No,Not Available,52.9047369367405,5.5210740921873
275,275,UrgentCare275,Street 275,Oudemirdum,FR,8567HA,yeah nice international support,7562772862,"URGENT MEDICAL CARE CENTERS AND CLINICS (EXCEPT HOSPITALS), FREESTANDING",Proprietary,No,Not Available,52.8735002115555,5.5453122527439
276,276,UrgentCare276,Street 276,Rijs,FR,8572WB,yeah nice international support,1203193667,"URGENT MEDICAL CARE CENTERS AND CLINICS (EXCEPT HOSPITALS), FREESTANDING",Proprietary,No,Not Available,52.8683693688459,5.4897258735646
277,277,UrgentCare277,Street 277,Ruigahuizen,FR,8564HA,yeah nice international support,4225087444,"URGENT MEDICAL CARE CENTERS AND CLINICS (EXCEPT HOSPITALS), FREESTANDING",Proprietary,No,Not Available,52.8885556889824,5.5675955745268
278,278,UrgentCare278,Street 278,Sloten,FR,8556AA,yeah nice international support,7577219757,"URGENT MEDICAL CARE CENTERS AND CLINICS (EXCEPT HOSPITALS), FREESTANDING",Proprietary,No,Not Available,52.8948723091290,5.6461603085382
279,279,UrgentCare279,Street 279,Sondel,FR,8565GB,yeah nice international support,8172798727,"URGENT MEDICAL CARE CENTERS AND CLINICS (EXCEPT HOSPITALS), FREESTANDING",Proprietary,No,Not Available,52.8725860511036,5.6028740228415
280,280,UrgentCare280,Street 280,Wijckel,FR,8563AA,yeah nice international support,7260869037,"URGENT MEDICAL CARE CENTERS AND CLINICS (EXCEPT HOSPITALS), FREESTANDING",Proprietary,No,Not Available,52.8910094644831,5.6060856829522
281,281,UrgentCare281,Street 281,Blesdijke,FR,8398ER,yeah nice international support,9852822068,"URGENT MEDICAL CARE CENTERS AND CLINICS (EXCEPT HOSPITALS), FREESTANDING",Proprietary,No,Not Available,52.8453394305026,6.0047749619862
282,282,UrgentCare282,Street 282,Boijl,FR,8392MA,yeah nice international support,5061592444,"URGENT MEDICAL CARE CENTERS AND CLINICS (EXCEPT HOSPITALS), FREESTANDING",Proprietary,No,Not Available,52.9106343553888,6.1987322913195
283,283,UrgentCare283,Street 283,De Blesse,FR,8397EP,yeah nice international support,1855880703,"URGENT MEDICAL CARE CENTERS AND CLINICS (EXCEPT HOSPITALS), FREESTANDING",Proprietary,No,Not Available,52.8304640305235,6.0537415645429
284,284,UrgentCare284,Street 284,De Hoeve,FR,8394TA,yeah nice international support,9728845389,"URGENT MEDICAL CARE CENTERS AND CLINICS (EXCEPT HOSPITALS), FREESTANDING",Proprietary,No,Not Available,52.8978887158882,6.0930074673102
285,285,UrgentCare285,Street 285,Langelille,FR,8484KA,yeah nice international support,8633715557,"URGENT MEDICAL CARE CENTERS AND CLINICS (EXCEPT HOSPITALS), FREESTANDING",Proprietary,No,Not Available,52.8418335601119,5.8467828991718
286,286,UrgentCare286,Street 286,Munnekeburen,FR,8485JA,yeah nice international support,5088116009,"URGENT MEDICAL CARE CENTERS AND CLINICS (EXCEPT HOSPITALS), FREESTANDING",Proprietary,No,Not Available,52.8533026345390,5.8910266115728
287,287,UrgentCare287,Street 287,Nijeholtpade,FR,8475CA,yeah nice international support,3002411951,"URGENT MEDICAL CARE CENTERS AND CLINICS (EXCEPT HOSPITALS), FREESTANDING",Proprietary,No,Not Available,52.9109257141414,6.0725892677861
288,288,UrgentCare288,Street 288,Nijeholtwolde,FR,8488AK,yeah nice international support,7699610199,"URGENT MEDICAL CARE CENTERS AND CLINICS (EXCEPT HOSPITALS), FREESTANDING",Proprietary,No,Not Available,52.8948180671463,5.9993413547777
289,289,UrgentCare289,Street 289,Nijelamer,FR,8487AJ,yeah nice international support,1852746098,"URGENT MEDICAL CARE CENTERS AND CLINICS (EXCEPT HOSPITALS), FREESTANDING",Proprietary,No,Not Available,52.8954841030635,5.9466285507083
290,290,UrgentCare290,Street 290,Nijetrijne,FR,8481JA,yeah nice international support,9564889229,"URGENT MEDICAL CARE CENTERS AND CLINICS (EXCEPT HOSPITALS), FREESTANDING",Proprietary,No,Not Available,52.8451171895130,5.9165445050710
291,291,UrgentCare291,Street 291,Noordwolde,FR,8391AA,yeah nice international support,4660008201,"URGENT MEDICAL CARE CENTERS AND CLINICS (EXCEPT HOSPITALS), FREESTANDING",Proprietary,No,Not Available,52.8923558509126,6.1378133632550
292,292,UrgentCare292,Street 292,Oldeholtpade,FR,8474AA,yeah nice international support,1029541625,"URGENT MEDICAL CARE CENTERS AND CLINICS (EXCEPT HOSPITALS), FREESTANDING",Proprietary,No,Not Available,52.8918289002988,6.0510440455004
293,293,UrgentCare293,Street 293,Oldeholtwolde,FR,8477AA,yeah nice international support,5592096403,"URGENT MEDICAL CARE CENTERS AND CLINICS (EXCEPT HOSPITALS), FREESTANDING",Proprietary,No,Not Available,52.9273453693347,5.9732258145010
294,294,UrgentCare294,Street 294,Oldelamer,FR,8486GB,yeah nice international support,3342127493,"URGENT MEDICAL CARE CENTERS AND CLINICS (EXCEPT HOSPITALS), FREESTANDING",Proprietary,No,Not Available,52.8794144573259,5.9439640575818
295,295,UrgentCare295,Street 295,Oldetrijne,FR,8479HG,yeah nice international support,9884960538,"URGENT MEDICAL CARE CENTERS AND CLINICS (EXCEPT HOSPITALS), FREESTANDING",Proprietary,No,Not Available,52.8646472998849,5.9529060382934
296,296,UrgentCare296,Street 296,Oosterstreek,FR,8388MA,yeah nice international support,7014665824,"URGENT MEDICAL CARE CENTERS AND CLINICS (EXCEPT HOSPITALS), FREESTANDING",Proprietary,No,Not Available,52.8996085420093,6.1713246335236
297,297,UrgentCare297,Street 297,Peperga,FR,8396GT,yeah nice international support,5515319993,"URGENT MEDICAL CARE CENTERS AND CLINICS (EXCEPT HOSPITALS), FREESTANDING",Proprietary,No,Not Available,52.8403707047650,6.0561777573743
298,298,UrgentCare298,Street 298,Scherpenzeel,FR,8483JJ,yeah nice international support,3712712661,"URGENT MEDICAL CARE CENTERS AND CLINICS (EXCEPT HOSPITALS), FREESTANDING",Proprietary,No,Not Available,52.8342619822344,5.8749498719004
299,299,UrgentCare299,Street 299,Slijkenburg,FR,8489KR,yeah nice international support,7206842612,"URGENT MEDICAL CARE CENTERS AND CLINICS (EXCEPT HOSPITALS), FREESTANDING",Proprietary,No,Not Available,52.8062180907737,5.8443810130471
300,300,UrgentCare300,Street 300,Sonnega,FR,8478GA,yeah nice international support,4658231531,"URGENT MEDICAL CARE CENTERS AND CLINICS (EXCEPT HOSPITALS), FREESTANDING",Proprietary,No,Not Available,52.8811285804155,5.9685392867270
301,301,UrgentCare301,Street 301,Spanga,FR,8482JG,yeah nice international support,2475495699,"URGENT MEDICAL CARE CENTERS AND CLINICS (EXCEPT HOSPITALS), FREESTANDING",Proprietary,No,Not Available,52.8248612619800,5.8800933946828
302,302,UrgentCare302,Street 302,Steggerda,FR,8395KV,yeah nice international support,5417481917,"URGENT MEDICAL CARE CENTERS AND CLINICS (EXCEPT HOSPITALS), FREESTANDING",Proprietary,No,Not Available,52.8598955663059,6.1104546406937
303,303,UrgentCare303,Street 303,Ter Idzard,FR,8476AB,yeah nice international support,4635163252,"URGENT MEDICAL CARE CENTERS AND CLINICS (EXCEPT HOSPITALS), FREESTANDING",Proprietary,No,Not Available,52.9225283238548,6.0082091475807
304,304,UrgentCare304,Street 304,Vinkega,FR,8393KT,yeah nice international support,6533370556,"URGENT MEDICAL CARE CENTERS AND CLINICS (EXCEPT HOSPITALS), FREESTANDING",Proprietary,No,Not Available,52.8656465771733,6.1254376984934
305,305,UrgentCare305,Street 305,Zandhuizen,FR,8389TA,yeah nice international support,7471983631,"URGENT MEDICAL CARE CENTERS AND CLINICS (EXCEPT HOSPITALS), FREESTANDING",Proprietary,No,Not Available,52.9259684005115,6.1730725421733
306,306,UrgentCare306,Street 306,Donkerbroek,FR,8435SB,yeah nice international support,9976802023,"URGENT MEDICAL CARE CENTERS AND CLINICS (EXCEPT HOSPITALS), FREESTANDING",Proprietary,No,Not Available,53.0192787520240,6.2362910980218
307,307,UrgentCare307,Street 307,Elsloo,FR,8421SP,yeah nice international support,7844622367,"URGENT MEDICAL CARE CENTERS AND CLINICS (EXCEPT HOSPITALS), FREESTANDING",Proprietary,No,Not Available,52.9352590349410,6.2549237252142
308,308,UrgentCare308,Street 308,Fochteloo,FR,8428HA,yeah nice international support,5009153834,"URGENT MEDICAL CARE CENTERS AND CLINICS (EXCEPT HOSPITALS), FREESTANDING",Proprietary,No,Not Available,52.9915744052807,6.3370273843180
309,309,UrgentCare309,Street 309,Langedijke,FR,8425SJ,yeah nice international support,9235680467,"URGENT MEDICAL CARE CENTERS AND CLINICS (EXCEPT HOSPITALS), FREESTANDING",Proprietary,No,Not Available,52.9664037655880,6.2708251152752
310,310,UrgentCare310,Street 310,Makkinga,FR,8423SB,yeah nice international support,5639110966,"URGENT MEDICAL CARE CENTERS AND CLINICS (EXCEPT HOSPITALS), FREESTANDING",Proprietary,No,Not Available,52.9777634839601,6.2147034577375
311,311,UrgentCare311,Street 311,Nijeberkoop,FR,8422DE,yeah nice international support,3526038143,"URGENT MEDICAL CARE CENTERS AND CLINICS (EXCEPT HOSPITALS), FREESTANDING",Proprietary,No,Not Available,52.9511482293738,6.1734285812394
312,312,UrgentCare312,Street 312,Oldeberkoop,FR,8421DA,yeah nice international support,8493074776,"URGENT MEDICAL CARE CENTERS AND CLINICS (EXCEPT HOSPITALS), FREESTANDING",Proprietary,No,Not Available,52.9222154553274,6.1123974717994
313,313,UrgentCare313,Street 313,Oosterwolde,FR,8430AA,yeah nice international support,9643919152,"URGENT MEDICAL CARE CENTERS AND CLINICS (EXCEPT HOSPITALS), FREESTANDING",Proprietary,No,Not Available,52.9911553750480,6.2906173037590
314,314,UrgentCare314,Street 314,Ravenswoud,FR,8427RC,yeah nice international support,6434715274,"URGENT MEDICAL CARE CENTERS AND CLINICS (EXCEPT HOSPITALS), FREESTANDING",Proprietary,No,Not Available,52.9612044405418,6.3770095462067
315,315,UrgentCare315,Street 315,Waskemeer,FR,8434NA,yeah nice international support,7504797137,"URGENT MEDICAL CARE CENTERS AND CLINICS (EXCEPT HOSPITALS), FREESTANDING",Proprietary,No,Not Available,53.0573310766823,6.2843789936792
316,316,UrgentCare316,Street 316,Workum,FR,8710AA,yeah nice international support,1295664816,"URGENT MEDICAL CARE CENTERS AND CLINICS (EXCEPT HOSPITALS), FREESTANDING",Proprietary,No,Not Available,52.9801784376919,5.4434135024786
317,317,UrgentCare317,Street 317,Koudum,FR,8723AA,yeah nice international support,9998466867,"URGENT MEDICAL CARE CENTERS AND CLINICS (EXCEPT HOSPITALS), FREESTANDING",Proprietary,No,Not Available,52.9174233935424,5.4537403962535
318,318,UrgentCare318,Street 318,Molkwerum,FR,8722HA,yeah nice international support,9967209084,"URGENT MEDICAL CARE CENTERS AND CLINICS (EXCEPT HOSPITALS), FREESTANDING",Proprietary,No,Not Available,52.9065333771320,5.4091303277450
319,319,UrgentCare319,Street 319,Hindeloopen,FR,8713JA,yeah nice international support,1839713552,"URGENT MEDICAL CARE CENTERS AND CLINICS (EXCEPT HOSPITALS), FREESTANDING",Proprietary,No,Not Available,52.9376802186654,5.4030856115270
320,320,UrgentCare320,Street 320,Stavoren,FR,8715ZH,yeah nice international support,6848620037,"URGENT MEDICAL CARE CENTERS AND CLINICS (EXCEPT HOSPITALS), FREESTANDING",Proprietary,No,Not Available,52.8826503592398,5.3661336863925
321,321,UrgentCare321,Street 321,Hemelum,FR,8584VA,yeah nice international support,9132494608,"URGENT MEDICAL CARE CENTERS AND CLINICS (EXCEPT HOSPITALS), FREESTANDING",Proprietary,No,Not Available,52.8799499074440,5.4568136347965
322,322,UrgentCare322,Street 322,Warns,FR,8721EM,yeah nice international support,4176517617,"URGENT MEDICAL CARE CENTERS AND CLINICS (EXCEPT HOSPITALS), FREESTANDING",Proprietary,No,Not Available,52.8861312157415,5.4013719583076
323,323,UrgentCare323,Street 323,Nijhuizum,FR,8775XD,yeah nice international support,6120594128,"URGENT MEDICAL CARE CENTERS AND CLINICS (EXCEPT HOSPITALS), FREESTANDING",Proprietary,No,Not Available,52.9824051669454,5.4867851966346
324,324,UrgentCare324,Street 324,It Heidenskip,FR,8724HP,yeah nice international support,5571384881,"URGENT MEDICAL CARE CENTERS AND CLINICS (EXCEPT HOSPITALS), FREESTANDING",Proprietary,No,Not Available,52.9708386831789,5.4720677965799
325,325,UrgentCare325,Street 325,Baaium,FR,8841KE,yeah nice international support,5527976373,"URGENT MEDICAL CARE CENTERS AND CLINICS (EXCEPT HOSPITALS), FREESTANDING",Proprietary,No,Not Available,53.1652513656746,5.6376810946556
326,326,UrgentCare326,Street 326,Baard,FR,8834XA,yeah nice international support,8637047278,"URGENT MEDICAL CARE CENTERS AND CLINICS (EXCEPT HOSPITALS), FREESTANDING",Proprietary,No,Not Available,53.1434852010750,5.6663535873339
327,327,UrgentCare327,Street 327,Bears,FR,9024EA,yeah nice international support,2406335640,"URGENT MEDICAL CARE CENTERS AND CLINICS (EXCEPT HOSPITALS), FREESTANDING",Proprietary,No,Not Available,53.1480681991830,5.7450313792718
328,328,UrgentCare328,Street 328,Boazum,FR,9021CH,yeah nice international support,1911308224,"URGENT MEDICAL CARE CENTERS AND CLINICS (EXCEPT HOSPITALS), FREESTANDING",Proprietary,No,Not Available,53.1165307337995,5.7355626787725
329,329,UrgentCare329,Street 329,Britswert,FR,8636VA,yeah nice international support,6399974457,"URGENT MEDICAL CARE CENTERS AND CLINICS (EXCEPT HOSPITALS), FREESTANDING",Proprietary,No,Not Available,53.1122862655140,5.6740250879430
330,330,UrgentCare330,Street 330,Easterein,FR,8734GA,yeah nice international support,1774049443,"URGENT MEDICAL CARE CENTERS AND CLINICS (EXCEPT HOSPITALS), FREESTANDING",Proprietary,No,Not Available,53.0890734152815,5.6338188548393
331,331,UrgentCare331,Street 331,Easterlittens,FR,8835KV,yeah nice international support,2113293648,"URGENT MEDICAL CARE CENTERS AND CLINICS (EXCEPT HOSPITALS), FREESTANDING",Proprietary,No,Not Available,53.1423815914190,5.6437239515626
332,332,UrgentCare332,Street 332,Easterwierrum,FR,9021BH,yeah nice international support,6393240646,"URGENT MEDICAL CARE CENTERS AND CLINICS (EXCEPT HOSPITALS), FREESTANDING",Proprietary,No,Not Available,53.1073204881943,5.7380261434256
333,333,UrgentCare333,Street 333,Hidaard,FR,8737JG,yeah nice international support,3697981509,"URGENT MEDICAL CARE CENTERS AND CLINICS (EXCEPT HOSPITALS), FREESTANDING",Proprietary,No,Not Available,53.0759993864093,5.5964191564674
334,334,UrgentCare334,Street 334,Hilaard,FR,9027BA,yeah nice international support,5817818100,"URGENT MEDICAL CARE CENTERS AND CLINICS (EXCEPT HOSPITALS), FREESTANDING",Proprietary,No,Not Available,53.1691114963299,5.6846124869221
335,335,UrgentCare335,Street 335,Hinnaard,FR,8844KR,yeah nice international support,1104828438,"URGENT MEDICAL CARE CENTERS AND CLINICS (EXCEPT HOSPITALS), FREESTANDING",Proprietary,No,Not Available,53.1241063871440,5.6276859732849
336,336,UrgentCare336,Street 336,Húns,FR,8832KB,yeah nice international support,8822148014,"URGENT MEDICAL CARE CENTERS AND CLINICS (EXCEPT HOSPITALS), FREESTANDING",Proprietary,No,Not Available,53.1598783260425,5.6677975442704
337,337,UrgentCare337,Street 337,Iens,FR,8733EM,yeah nice international support,5283578595,"URGENT MEDICAL CARE CENTERS AND CLINICS (EXCEPT HOSPITALS), FREESTANDING",Proprietary,No,Not Available,53.1241413246463,5.6075103036461
338,338,UrgentCare338,Street 338,Itens,FR,8735HH,yeah nice international support,2825248378,"URGENT MEDICAL CARE CENTERS AND CLINICS (EXCEPT HOSPITALS), FREESTANDING",Proprietary,No,Not Available,53.1035591088440,5.6358746628884
339,339,UrgentCare339,Street 339,Jellum,FR,9024EA,yeah nice international support,5679293407,"URGENT MEDICAL CARE CENTERS AND CLINICS (EXCEPT HOSPITALS), FREESTANDING",Proprietary,No,Not Available,53.1480745626650,5.7454098000264
340,340,UrgentCare340,Street 340,Jorwert,FR,9023AA,yeah nice international support,4335423860,"URGENT MEDICAL CARE CENTERS AND CLINICS (EXCEPT HOSPITALS), FREESTANDING",Proprietary,No,Not Available,53.1463367061754,5.7100222690036
341,341,UrgentCare341,Street 341,Kûbaard,FR,8732EB,yeah nice international support,4773245174,"URGENT MEDICAL CARE CENTERS AND CLINICS (EXCEPT HOSPITALS), FREESTANDING",Proprietary,No,Not Available,53.1275590147385,5.5903111544014
342,342,UrgentCare342,Street 342,Leons,FR,8833KA,yeah nice international support,1284507883,"URGENT MEDICAL CARE CENTERS AND CLINICS (EXCEPT HOSPITALS), FREESTANDING",Proprietary,No,Not Available,53.1520416727135,5.6791805826602
343,343,UrgentCare343,Street 343,Lytsewierrum,FR,8642WB,yeah nice international support,9977042753,"URGENT MEDICAL CARE CENTERS AND CLINICS (EXCEPT HOSPITALS), FREESTANDING",Proprietary,No,Not Available,53.0796782409190,5.6744295256612
344,344,UrgentCare344,Street 344,Mantgum,FR,9022AA,yeah nice international support,9759828549,"URGENT MEDICAL CARE CENTERS AND CLINICS (EXCEPT HOSPITALS), FREESTANDING",Proprietary,No,Not Available,53.1284266009565,5.7204235760919
345,345,UrgentCare345,Street 345,Reahûs,FR,8736JA,yeah nice international support,1127172750,"URGENT MEDICAL CARE CENTERS AND CLINICS (EXCEPT HOSPITALS), FREESTANDING",Proprietary,No,Not Available,53.0779941267203,5.6314865224010
346,346,UrgentCare346,Street 346,Rien,FR,8641WS,yeah nice international support,6524310712,"URGENT MEDICAL CARE CENTERS AND CLINICS (EXCEPT HOSPITALS), FREESTANDING",Proprietary,No,Not Available,53.0946441093189,5.6603475518502
347,347,UrgentCare347,Street 347,Spannum,FR,8842LH,yeah nice international support,1749459233,"URGENT MEDICAL CARE CENTERS AND CLINICS (EXCEPT HOSPITALS), FREESTANDING",Proprietary,No,Not Available,53.1673429849430,5.6061307410626
348,348,UrgentCare348,Street 348,Waaksens,FR,8845SE,yeah nice international support,3515705305,"URGENT MEDICAL CARE CENTERS AND CLINICS (EXCEPT HOSPITALS), FREESTANDING",Proprietary,No,Not Available,53.1131408049885,5.5343827376931
349,349,UrgentCare349,Street 349,Weidum,FR,9024BD,yeah nice international support,6405064679,"URGENT MEDICAL CARE CENTERS AND CLINICS (EXCEPT HOSPITALS), FREESTANDING",Proprietary,No,Not Available,53.1528938267690,5.7446121799720
350,350,UrgentCare350,Street 350,Winsum,FR,8831KM,yeah nice international support,5116695364,"URGENT MEDICAL CARE CENTERS AND CLINICS (EXCEPT HOSPITALS), FREESTANDING",Proprietary,No,Not Available,53.1554648253730,5.6139919592948
351,351,UrgentCare351,Street 351,Wiuwert,FR,8637VD,yeah nice international support,6820562398,"URGENT MEDICAL CARE CENTERS AND CLINICS (EXCEPT HOSPITALS), FREESTANDING",Proprietary,No,Not Available,53.1076454682101,5.6932787159946
352,352,UrgentCare352,Street 352,Wjelsryp,FR,8842KM,yeah nice international support,6414503389,"URGENT MEDICAL CARE CENTERS AND CLINICS (EXCEPT HOSPITALS), FREESTANDING",Proprietary,No,Not Available,53.1559791790025,5.6023349403176
353,353,UrgentCare353,Street 353,Wommels,FR,8731AA,yeah nice international support,6969258496,"URGENT MEDICAL CARE CENTERS AND CLINICS (EXCEPT HOSPITALS), FREESTANDING",Proprietary,No,Not Available,53.1089555151277,5.5859948682432
354,354,UrgentCare354,Street 354,Bolsward,FR,8700AA,yeah nice international support,3592458739,"URGENT MEDICAL CARE CENTERS AND CLINICS (EXCEPT HOSPITALS), FREESTANDING",Proprietary,No,Not Available,53.0587977607348,5.5367566631524
355,355,UrgentCare355,Street 355,Terband,FR,8449AA,yeah nice international support,7911834437,"URGENT MEDICAL CARE CENTERS AND CLINICS (EXCEPT HOSPITALS), FREESTANDING",Proprietary,No,Not Available,53.0061571771350,5.8923121230906
356,356,UrgentCare356,Street 356,Luinjeberd,FR,8459BK,yeah nice international support,6269759687,"URGENT MEDICAL CARE CENTERS AND CLINICS (EXCEPT HOSPITALS), FREESTANDING",Proprietary,No,Not Available,52.9895627935906,5.9200966682972
357,357,UrgentCare357,Street 357,Tjalleberd,FR,8458BE,yeah nice international support,4281803308,"URGENT MEDICAL CARE CENTERS AND CLINICS (EXCEPT HOSPITALS), FREESTANDING",Proprietary,No,Not Available,52.9960667561061,5.9371064944443
358,358,UrgentCare358,Street 358,Gersloot,FR,8457CB,yeah nice international support,3895431521,"URGENT MEDICAL CARE CENTERS AND CLINICS (EXCEPT HOSPITALS), FREESTANDING",Proprietary,No,Not Available,53.0056982286303,5.9622866307639
359,359,UrgentCare359,Street 359,Heerenveen,FR,8442KN,yeah nice international support,2352074175,"URGENT MEDICAL CARE CENTERS AND CLINICS (EXCEPT HOSPITALS), FREESTANDING",Proprietary,No,Not Available,52.9501890077588,5.9284625436128
360,360,UrgentCare360,Street 360,Nieuweschoot,FR,8452LA,yeah nice international support,7586657500,"URGENT MEDICAL CARE CENTERS AND CLINICS (EXCEPT HOSPITALS), FREESTANDING",Proprietary,No,Not Available,52.9333470972010,5.9316316747736
361,361,UrgentCare361,Street 361,Oudeschoot,FR,8451BA,yeah nice international support,6448673079,"URGENT MEDICAL CARE CENTERS AND CLINICS (EXCEPT HOSPITALS), FREESTANDING",Proprietary,No,Not Available,52.9325725400953,5.9554282450193
362,362,UrgentCare362,Street 362,Oranjewoud,FR,8443EK,yeah nice international support,2348119211,"URGENT MEDICAL CARE CENTERS AND CLINICS (EXCEPT HOSPITALS), FREESTANDING",Proprietary,No,Not Available,52.9424090178410,5.9493186029656
363,363,UrgentCare363,Street 363,De Knipe,FR,8456GA,yeah nice international support,4403817478,"URGENT MEDICAL CARE CENTERS AND CLINICS (EXCEPT HOSPITALS), FREESTANDING",Proprietary,No,Not Available,52.9685534605730,5.9615621876229
364,364,UrgentCare364,Street 364,Mildam,FR,8454JK,yeah nice international support,2693042276,"URGENT MEDICAL CARE CENTERS AND CLINICS (EXCEPT HOSPITALS), FREESTANDING",Proprietary,No,Not Available,52.9482997121817,5.9919149061455
365,365,UrgentCare365,Street 365,Katlijk,FR,8455JA,yeah nice international support,4175362199,"URGENT MEDICAL CARE CENTERS AND CLINICS (EXCEPT HOSPITALS), FREESTANDING",Proprietary,No,Not Available,52.9513139888653,5.9992968662456
366,366,UrgentCare366,Street 366,Bontebok,FR,8415AA,yeah nice international support,5100619232,"URGENT MEDICAL CARE CENTERS AND CLINICS (EXCEPT HOSPITALS), FREESTANDING",Proprietary,No,Not Available,52.9631883440385,6.0278466574089
367,367,UrgentCare367,Street 367,Nieuwehorne,FR,8414KA,yeah nice international support,7931143134,"URGENT MEDICAL CARE CENTERS AND CLINICS (EXCEPT HOSPITALS), FREESTANDING",Proprietary,No,Not Available,52.9483730830033,6.0536187653076
368,368,UrgentCare368,Street 368,Oudehorne,FR,8413CS,yeah nice international support,5734183404,"URGENT MEDICAL CARE CENTERS AND CLINICS (EXCEPT HOSPITALS), FREESTANDING",Proprietary,No,Not Available,52.9487900050231,6.0982657118968
369,369,UrgentCare369,Street 369,Jubbega,FR,8411CH,yeah nice international support,9516842812,"URGENT MEDICAL CARE CENTERS AND CLINICS (EXCEPT HOSPITALS), FREESTANDING",Proprietary,No,Not Available,52.9926484765800,6.0977567090360
370,370,UrgentCare370,Street 370,Hoornsterzwaag,FR,8412CA,yeah nice international support,3816735890,"URGENT MEDICAL CARE CENTERS AND CLINICS (EXCEPT HOSPITALS), FREESTANDING",Proprietary,No,Not Available,52.9896737206783,6.1803207531978
371,371,UrgentCare371,Street 371,Bantega,FR,8538RA,yeah nice international support,4788255040,"URGENT MEDICAL CARE CENTERS AND CLINICS (EXCEPT HOSPITALS), FREESTANDING",Proprietary,No,Not Available,52.8470762264424,5.7952982098722
372,372,UrgentCare372,Street 372,Delfstrahuizen,FR,8508RA,yeah nice international support,5914256770,"URGENT MEDICAL CARE CENTERS AND CLINICS (EXCEPT HOSPITALS), FREESTANDING",Proprietary,No,Not Available,52.8738352003983,5.8228189499013
373,373,UrgentCare373,Street 373,Echtenerbrug,FR,8539RM,yeah nice international support,6366362326,"URGENT MEDICAL CARE CENTERS AND CLINICS (EXCEPT HOSPITALS), FREESTANDING",Proprietary,No,Not Available,52.8733418118664,5.8161496374236
374,374,UrgentCare374,Street 374,Eesterga,FR,8534WB,yeah nice international support,4681547936,"URGENT MEDICAL CARE CENTERS AND CLINICS (EXCEPT HOSPITALS), FREESTANDING",Proprietary,No,Not Available,52.8648978126767,5.7256766733325
375,375,UrgentCare375,Street 375,Follega,FR,8535WD,yeah nice international support,5450584446,"URGENT MEDICAL CARE CENTERS AND CLINICS (EXCEPT HOSPITALS), FREESTANDING",Proprietary,No,Not Available,52.8906536265630,5.7376225141320
376,376,UrgentCare376,Street 376,Lemmer,FR,8531AA,yeah nice international support,7429037911,"URGENT MEDICAL CARE CENTERS AND CLINICS (EXCEPT HOSPITALS), FREESTANDING",Proprietary,No,Not Available,52.8368099439813,5.7229140383746
377,377,UrgentCare377,Street 377,Oosterzee,FR,8536TA,yeah nice international support,1385149471,"URGENT MEDICAL CARE CENTERS AND CLINICS (EXCEPT HOSPITALS), FREESTANDING",Proprietary,No,Not Available,52.8605495794452,5.7417312406887
378,378,UrgentCare378,Street 378,Allingawier,FR,8758LB,yeah nice international support,3404881513,"URGENT MEDICAL CARE CENTERS AND CLINICS (EXCEPT HOSPITALS), FREESTANDING",Proprietary,No,Not Available,53.0420955108228,5.4629473109321
379,379,UrgentCare379,Street 379,Arum,FR,8822VA,yeah nice international support,2042981173,"URGENT MEDICAL CARE CENTERS AND CLINICS (EXCEPT HOSPITALS), FREESTANDING",Proprietary,No,Not Available,53.1368914044274,5.4712089877346
380,380,UrgentCare380,Street 380,Breezanddijk,FR,8766TS,yeah nice international support,6862628623,"URGENT MEDICAL CARE CENTERS AND CLINICS (EXCEPT HOSPITALS), FREESTANDING",Proprietary,No,Not Available,53.0194572806690,5.2076347088859
381,381,UrgentCare381,Street 381,Burgwerd,FR,8742KG,yeah nice international support,1830187947,"URGENT MEDICAL CARE CENTERS AND CLINICS (EXCEPT HOSPITALS), FREESTANDING",Proprietary,No,Not Available,53.0852250993114,5.5456891551539
382,382,UrgentCare382,Street 382,Cornwerd,FR,8753JA,yeah nice international support,9029707725,"URGENT MEDICAL CARE CENTERS AND CLINICS (EXCEPT HOSPITALS), FREESTANDING",Proprietary,No,Not Available,53.0862224805780,5.3838931810782
383,383,UrgentCare383,Street 383,Dedgum,FR,8764PN,yeah nice international support,6751522017,"URGENT MEDICAL CARE CENTERS AND CLINICS (EXCEPT HOSPITALS), FREESTANDING",Proprietary,No,Not Available,53.0246847100244,5.4947163743465
384,384,UrgentCare384,Street 384,Exmorra,FR,8759LA,yeah nice international support,6123105082,"URGENT MEDICAL CARE CENTERS AND CLINICS (EXCEPT HOSPITALS), FREESTANDING",Proprietary,No,Not Available,53.0577685133913,5.4763446348288
385,385,UrgentCare385,Street 385,Ferwoude,FR,8761PA,yeah nice international support,2073170903,"URGENT MEDICAL CARE CENTERS AND CLINICS (EXCEPT HOSPITALS), FREESTANDING",Proprietary,No,Not Available,53.0096921865758,5.4488158956193
386,386,UrgentCare386,Street 386,Gaast,FR,8757JP,yeah nice international support,9321374987,"URGENT MEDICAL CARE CENTERS AND CLINICS (EXCEPT HOSPITALS), FREESTANDING",Proprietary,No,Not Available,53.0163219869110,5.4098124221925
387,387,UrgentCare387,Street 387,Hartwerd,FR,8741KB,yeah nice international support,9763654058,"URGENT MEDICAL CARE CENTERS AND CLINICS (EXCEPT HOSPITALS), FREESTANDING",Proprietary,No,Not Available,53.0700145925988,5.5669876157195
388,388,UrgentCare388,Street 388,Hichtum,FR,8743KW,yeah nice international support,6050367015,"URGENT MEDICAL CARE CENTERS AND CLINICS (EXCEPT HOSPITALS), FREESTANDING",Proprietary,No,Not Available,53.0841939256661,5.5176358342700
389,389,UrgentCare389,Street 389,Hieslum,FR,8762PJ,yeah nice international support,6698357904,"URGENT MEDICAL CARE CENTERS AND CLINICS (EXCEPT HOSPITALS), FREESTANDING",Proprietary,No,Not Available,53.0100983072837,5.4955485324429
390,390,UrgentCare390,Street 390,Idsegahuizum,FR,8755JH,yeah nice international support,8606781105,"URGENT MEDICAL CARE CENTERS AND CLINICS (EXCEPT HOSPITALS), FREESTANDING",Proprietary,No,Not Available,53.0437734570094,5.4171081420085
391,391,UrgentCare391,Street 391,Kimswerd,FR,8821LA,yeah nice international support,1063232371,"URGENT MEDICAL CARE CENTERS AND CLINICS (EXCEPT HOSPITALS), FREESTANDING",Proprietary,No,Not Available,53.1344962538496,5.4194706928580
392,392,UrgentCare392,Street 392,Kornwerderzand,FR,8752TP,yeah nice international support,5836355027,"URGENT MEDICAL CARE CENTERS AND CLINICS (EXCEPT HOSPITALS), FREESTANDING",Proprietary,No,Not Available,53.0727086309071,5.3361955062311
393,393,UrgentCare393,Street 393,Lollum,FR,8823SB,yeah nice international support,9762776516,"URGENT MEDICAL CARE CENTERS AND CLINICS (EXCEPT HOSPITALS), FREESTANDING",Proprietary,No,Not Available,53.1349567352947,5.5321531833689
394,394,UrgentCare394,Street 394,Longerhouw,FR,8745NA,yeah nice international support,8780061517,"URGENT MEDICAL CARE CENTERS AND CLINICS (EXCEPT HOSPITALS), FREESTANDING",Proprietary,No,Not Available,53.0696967732683,5.4781127062643
395,395,UrgentCare395,Street 395,Makkum,FR,8754AA,yeah nice international support,1064775031,"URGENT MEDICAL CARE CENTERS AND CLINICS (EXCEPT HOSPITALS), FREESTANDING",Proprietary,No,Not Available,53.0583827428371,5.4091960934769
396,396,UrgentCare396,Street 396,Parrega,FR,8763MA,yeah nice international support,3035425249,"URGENT MEDICAL CARE CENTERS AND CLINICS (EXCEPT HOSPITALS), FREESTANDING",Proprietary,No,Not Available,53.0162721989968,5.4852274882092
397,397,UrgentCare397,Street 397,Piaam,FR,8756JN,yeah nice international support,2825921017,"URGENT MEDICAL CARE CENTERS AND CLINICS (EXCEPT HOSPITALS), FREESTANDING",Proprietary,No,Not Available,53.0320910693487,5.4172093032592
398,398,UrgentCare398,Street 398,Pingjum,FR,8749GA,yeah nice international support,3252526808,"URGENT MEDICAL CARE CENTERS AND CLINICS (EXCEPT HOSPITALS), FREESTANDING",Proprietary,No,Not Available,53.1162052892486,5.4413104447795
399,399,UrgentCare399,Street 399,Schettens,FR,8744EN,yeah nice international support,9369059764,"URGENT MEDICAL CARE CENTERS AND CLINICS (EXCEPT HOSPITALS), FREESTANDING",Proprietary,No,Not Available,53.0810333673781,5.4832398284136
400,400,UrgentCare400,Street 400,Schraard,FR,8746ND,yeah nice international support,6595880284,"URGENT MEDICAL CARE CENTERS AND CLINICS (EXCEPT HOSPITALS), FREESTANDING",Proprietary,No,Not Available,53.0795890341910,5.4596089354337
401,401,UrgentCare401,Street 401,Tjerkwerd,FR,8765LH,yeah nice international support,8223377471,"URGENT MEDICAL CARE CENTERS AND CLINICS (EXCEPT HOSPITALS), FREESTANDING",Proprietary,No,Not Available,53.0417433660456,5.4937683261477
402,402,UrgentCare402,Street 402,Witmarsum,FR,8748AA,yeah nice international support,7224968438,"URGENT MEDICAL CARE CENTERS AND CLINICS (EXCEPT HOSPITALS), FREESTANDING",Proprietary,No,Not Available,53.1032745754019,5.4682724725227
403,403,UrgentCare403,Street 403,Wons,FR,8747NJ,yeah nice international support,3051665729,"URGENT MEDICAL CARE CENTERS AND CLINICS (EXCEPT HOSPITALS), FREESTANDING",Proprietary,No,Not Available,53.0855517964924,5.4208984716938
404,404,UrgentCare404,Street 404,Zurich,FR,8749TT,yeah nice international support,1742174347,"URGENT MEDICAL CARE CENTERS AND CLINICS (EXCEPT HOSPITALS), FREESTANDING",Proprietary,No,Not Available,53.1264675131130,5.4075955478315
405,405,UrgentCare405,Street 405,Abbega,FR,8617LA,yeah nice international support,1130609209,"URGENT MEDICAL CARE CENTERS AND CLINICS (EXCEPT HOSPITALS), FREESTANDING",Proprietary,No,Not Available,53.0282437150606,5.5756414562264
406,406,UrgentCare406,Street 406,Blauwhuis,FR,8615LB,yeah nice international support,5915437220,"URGENT MEDICAL CARE CENTERS AND CLINICS (EXCEPT HOSPITALS), FREESTANDING",Proprietary,No,Not Available,53.0255375344813,5.5342649346815
407,407,UrgentCare407,Street 407,Folsgare,FR,8771KE,yeah nice international support,1042919136,"URGENT MEDICAL CARE CENTERS AND CLINICS (EXCEPT HOSPITALS), FREESTANDING",Proprietary,No,Not Available,53.0418881395748,5.5804556946593
408,408,UrgentCare408,Street 408,Gaastmeer,FR,8611JH,yeah nice international support,1601745315,"URGENT MEDICAL CARE CENTERS AND CLINICS (EXCEPT HOSPITALS), FREESTANDING",Proprietary,No,Not Available,52.9638199205758,5.5454553769959
409,409,UrgentCare409,Street 409,Gauw,FR,8551PD,yeah nice international support,8423074921,"URGENT MEDICAL CARE CENTERS AND CLINICS (EXCEPT HOSPITALS), FREESTANDING",Proprietary,No,Not Available,52.9433684619828,5.6276490862072
410,410,UrgentCare410,Street 410,Goënga,FR,8628EK,yeah nice international support,3766814413,"URGENT MEDICAL CARE CENTERS AND CLINICS (EXCEPT HOSPITALS), FREESTANDING",Proprietary,No,Not Available,53.0527705347554,5.6925398792385
411,411,UrgentCare411,Street 411,Greonterp,FR,8658LH,yeah nice international support,9138984489,"URGENT MEDICAL CARE CENTERS AND CLINICS (EXCEPT HOSPITALS), FREESTANDING",Proprietary,No,Not Available,53.0149701885170,5.5070593577511
412,412,UrgentCare412,Street 412,Heeg,FR,8621BA,yeah nice international support,6472172929,"URGENT MEDICAL CARE CENTERS AND CLINICS (EXCEPT HOSPITALS), FREESTANDING",Proprietary,No,Not Available,52.9682202764063,5.5993886552750
413,413,UrgentCare413,Street 413,Hommerts,FR,8622ZJ,yeah nice international support,8256589251,"URGENT MEDICAL CARE CENTERS AND CLINICS (EXCEPT HOSPITALS), FREESTANDING",Proprietary,No,Not Available,52.9816612606048,5.6542662972604
414,414,UrgentCare414,Street 414,Idzega,FR,8612JJ,yeah nice international support,3147780107,"URGENT MEDICAL CARE CENTERS AND CLINICS (EXCEPT HOSPITALS), FREESTANDING",Proprietary,No,Not Available,52.9797258520197,5.5543320732425
415,415,UrgentCare415,Street 415,IJlst,FR,8651AA,yeah nice international support,1879719289,"URGENT MEDICAL CARE CENTERS AND CLINICS (EXCEPT HOSPITALS), FREESTANDING",Proprietary,No,Not Available,53.0116821619168,5.6225959945810
416,416,UrgentCare416,Street 416,Indijk,FR,8553MC,yeah nice international support,7959610763,"URGENT MEDICAL CARE CENTERS AND CLINICS (EXCEPT HOSPITALS), FREESTANDING",Proprietary,No,Not Available,52.9481904984415,5.6215914773530
417,417,UrgentCare417,Street 417,Jutrijp,FR,8623XG,yeah nice international support,6477806821,"URGENT MEDICAL CARE CENTERS AND CLINICS (EXCEPT HOSPITALS), FREESTANDING",Proprietary,No,Not Available,52.9969288320239,5.6456901723121
418,418,UrgentCare418,Street 418,Koufurderrige,FR,8529MJ,yeah nice international support,5908344324,"URGENT MEDICAL CARE CENTERS AND CLINICS (EXCEPT HOSPITALS), FREESTANDING",Proprietary,No,Not Available,52.9584692490641,5.6564608098066
419,419,UrgentCare419,Street 419,Nijland,FR,8771KA,yeah nice international support,8156277127,"URGENT MEDICAL CARE CENTERS AND CLINICS (EXCEPT HOSPITALS), FREESTANDING",Proprietary,No,Not Available,53.0562430705420,5.5620871887198
420,420,UrgentCare420,Street 420,Oosthem,FR,8651NC,yeah nice international support,8423015425,"URGENT MEDICAL CARE CENTERS AND CLINICS (EXCEPT HOSPITALS), FREESTANDING",Proprietary,No,Not Available,53.0098915753448,5.6079914301595
421,421,UrgentCare421,Street 421,Oppenhuizen,FR,8624HV,yeah nice international support,5841340441,"URGENT MEDICAL CARE CENTERS AND CLINICS (EXCEPT HOSPITALS), FREESTANDING",Proprietary,No,Not Available,52.9991233213440,5.6980706782881
422,422,UrgentCare422,Street 422,Sandfirden,FR,8613JH,yeah nice international support,9524860950,"URGENT MEDICAL CARE CENTERS AND CLINICS (EXCEPT HOSPITALS), FREESTANDING",Proprietary,No,Not Available,52.9881768073073,5.5188017848168
423,423,UrgentCare423,Street 423,Scharnegoutum,FR,8629EA,yeah nice international support,3525219941,"URGENT MEDICAL CARE CENTERS AND CLINICS (EXCEPT HOSPITALS), FREESTANDING",Proprietary,No,Not Available,53.0587873872856,5.6807779552866
424,424,UrgentCare424,Street 424,Smallebrugge,FR,8552MN,yeah nice international support,1519502849,"URGENT MEDICAL CARE CENTERS AND CLINICS (EXCEPT HOSPITALS), FREESTANDING",Proprietary,No,Not Available,52.9603655379082,5.6355338641822
425,425,UrgentCare425,Street 425,Tirns,FR,8632WE,yeah nice international support,1521742329,"URGENT MEDICAL CARE CENTERS AND CLINICS (EXCEPT HOSPITALS), FREESTANDING",Proprietary,No,Not Available,53.0606910175068,5.6297691618943
426,426,UrgentCare426,Street 426,Tjalhuizum,FR,8772KL,yeah nice international support,3982837946,"URGENT MEDICAL CARE CENTERS AND CLINICS (EXCEPT HOSPITALS), FREESTANDING",Proprietary,No,Not Available,53.0479990034331,5.6101365016646
427,427,UrgentCare427,Street 427,Uitwellingerga,FR,8624HV,yeah nice international support,2665903600,"URGENT MEDICAL CARE CENTERS AND CLINICS (EXCEPT HOSPITALS), FREESTANDING",Proprietary,No,Not Available,52.9975550135450,5.6954917380324
428,428,UrgentCare428,Street 428,Westhem,FR,8616LA,yeah nice international support,7674410968,"URGENT MEDICAL CARE CENTERS AND CLINICS (EXCEPT HOSPITALS), FREESTANDING",Proprietary,No,Not Available,53.0179382454835,5.5431610524969
429,429,UrgentCare429,Street 429,Wolsum,FR,8774PD,yeah nice international support,8034093787,"URGENT MEDICAL CARE CENTERS AND CLINICS (EXCEPT HOSPITALS), FREESTANDING",Proprietary,No,Not Available,53.0369953213295,5.5460998121664
430,430,UrgentCare430,Street 430,Woudsend,FR,8551MA,yeah nice international support,2938452019,"URGENT MEDICAL CARE CENTERS AND CLINICS (EXCEPT HOSPITALS), FREESTANDING",Proprietary,No,Not Available,52.9398136458100,5.6246752565628
431,431,UrgentCare431,Street 431,Ypecolsga,FR,8554RD,yeah nice international support,3917765574,"URGENT MEDICAL CARE CENTERS AND CLINICS (EXCEPT HOSPITALS), FREESTANDING",Proprietary,No,Not Available,52.9354125937192,5.6107022081061
